let locaisinteresse= {
"type": "FeatureCollection",
"name": "locaisinteresseturistico",
"crs": { "type": "name", "properties": { "name": "urn:ogc:def:crs:OGC:1.3:CRS84" } },
"features": [
{ "type": "Feature", "properties": { "gid": 0, "id": null, "nome": "Parque Infantil do Parque de Lazer de Ourilhe", "Toponimo": null, "DESIGNACAO": null, "localidade": "Fortunos - Ourilhe", "freguesia": "União das freguesias de Britelo, Gémeos e Ourilhe", "concelho": "Celorico de Basto", "distrito": "Braga" }, "geometry": { "type": "Point", "coordinates": [ -8.0203, 41.41044 ] } },
{ "type": "Feature", "properties": { "gid": 0, "id": null, "nome": "Parque Infantil do Parque de Lazer de Canedo de Basto", "Toponimo": null, "DESIGNACAO": null, "localidade": "S. Mamede - Canedo de Basto", "freguesia": "União das freguesias de Canedo de Basto e Corgo", "concelho": "Celorico de Basto", "distrito": "Braga" }, "geometry": { "type": "Point", "coordinates": [ -7.93906, 41.44376 ] } },
{ "type": "Feature", "properties": { "gid": 0, "id": null, "nome": "Parque Infantil do Parque de Lazer de Agilde", "Toponimo": null, "DESIGNACAO": null, "localidade": "S. Pedro - Agilde", "freguesia": "Agilde", "concelho": "Celorico de Basto", "distrito": "Braga" }, "geometry": { "type": "Point", "coordinates": [ -8.13613, 41.36273 ] } },
{ "type": "Feature", "properties": { "gid": 0, "id": null, "nome": "Parque Infantil do Parque de Lazer do Viso", "Toponimo": null, "DESIGNACAO": null, "localidade": "Capela do Viso - Rego", "freguesia": "Rego", "concelho": "Celorico de Basto", "distrito": "Braga" }, "geometry": { "type": "Point", "coordinates": [ -8.06378, 41.4127 ] } },
{ "type": "Feature", "properties": { "gid": 0, "id": null, "nome": "Parque Infantil do Parque de Lazer de Fiães, Codessoso", "Toponimo": null, "DESIGNACAO": null, "localidade": "Fiães - Codessoso", "freguesia": "Codessoso", "concelho": "Celorico de Basto", "distrito": "Braga" }, "geometry": { "type": "Point", "coordinates": [ -8.03526, 41.33505 ] } },
{ "type": "Feature", "properties": { "gid": 0, "id": null, "nome": "Parque Infantil do Parque Urbano do Freixieiro", "Toponimo": null, "DESIGNACAO": null, "localidade": "Celorico de Basto", "freguesia": "União das freguesias de Britelo, Gémeos e Ourilhe", "concelho": "Celorico de Basto", "distrito": "Braga" }, "geometry": { "type": "Point", "coordinates": [ -8.0002, 41.39149 ] } },
{ "type": "Feature", "properties": { "gid": 0, "id": null, "nome": "Parque Infantil da Vila de Fermil de Basto", "Toponimo": null, "DESIGNACAO": null, "localidade": "Fermil - CBT", "freguesia": "União das freguesias de Veade, Gagos e Molares", "concelho": "Celorico de Basto", "distrito": "Braga" }, "geometry": { "type": "Point", "coordinates": [ -7.9865, 41.42236 ] } },
{ "type": "Feature", "properties": { "gid": 0, "id": null, "nome": "Parque Infantil do Parque Lúdico da Vila de Gandarela", "Toponimo": null, "DESIGNACAO": null, "localidade": "Gandarela - CBT", "freguesia": "Basto (S.Clemente)", "concelho": "Celorico de Basto", "distrito": "Braga" }, "geometry": { "type": "Point", "coordinates": [ -8.03075, 41.45865 ] } },
{ "type": "Feature", "properties": { "gid": 0, "id": null, "nome": "Parque Infantil de Borba da Montanha", "Toponimo": null, "DESIGNACAO": null, "localidade": null, "freguesia": "Borba da Montanha", "concelho": "Celorico de Basto", "distrito": "Braga" }, "geometry": { "type": "Point", "coordinates": [ -8.09534, 41.3857 ] } },
{ "type": "Feature", "properties": { "gid": 0, "id": null, "nome": "Parque infantil do Parque Lúdico de Carvalho", "Toponimo": null, "DESIGNACAO": null, "localidade": null, "freguesia": "União das freguesias de Carvalho e Basto (Santa Tecla)", "concelho": "Celorico de Basto", "distrito": "Braga" }, "geometry": { "type": "Point", "coordinates": [ -8.07212, 41.38143 ] } },
{ "type": "Feature", "properties": { "gid": 0, "id": null, "nome": "Parque infantil do arranjo urbanístico de Moreira do Castelo", "Toponimo": null, "DESIGNACAO": null, "localidade": null, "freguesia": null, "concelho": null, "distrito": null }, "geometry": { "type": "Point", "coordinates": [ -8.06267, 41.34966 ] } },
{ "type": "Feature", "properties": { "gid": 0, "id": null, "nome": "Cubo Bar", "Toponimo": null, "DESIGNACAO": null, "localidade": "Celorico de Basto", "freguesia": "União das freguesias de Britelo, Gémeos e Ourilhe", "concelho": "Celorico de Basto", "distrito": "Braga" }, "geometry": { "type": "Point", "coordinates": [ -8.00053, 41.39201 ] } },
{ "type": "Feature", "properties": { "gid": 0, "id": null, "nome": "Mercado Club", "Toponimo": null, "DESIGNACAO": null, "localidade": "Celorico de Basto", "freguesia": "União das freguesias de Britelo, Gémeos e Ourilhe", "concelho": "Celorico de Basto", "distrito": "Braga" }, "geometry": { "type": "Point", "coordinates": [ -7.99916, 41.39104 ] } },
{ "type": "Feature", "properties": { "gid": 0, "id": null, "nome": "Piscina Municipal de Celorico de Basto (coberta)", "Toponimo": null, "DESIGNACAO": null, "localidade": "Celorico de Basto", "freguesia": "Britelo", "concelho": "Celorico de Basto", "distrito": "Braga" }, "geometry": { "type": "Point", "coordinates": [ -8.00074, 41.39118 ] } },
{ "type": "Feature", "properties": { "gid": 0, "id": null, "nome": "Piscina recreativa descoberta de Fiães de Cima, Codessoso", "Toponimo": null, "DESIGNACAO": null, "localidade": "Celorico de Basto", "freguesia": "Britelo", "concelho": "Celorico de Basto", "distrito": "Braga" }, "geometry": { "type": "Point", "coordinates": [ -8.03495, 41.33547 ] } },
{ "type": "Feature", "properties": { "gid": 0, "id": null, "nome": "Piscina recreativa descoberta de Celorico de Basto", "Toponimo": null, "DESIGNACAO": null, "localidade": "Celorico de Basto", "freguesia": "Britelo", "concelho": "Celorico de Basto", "distrito": "Braga" }, "geometry": { "type": "Point", "coordinates": [ -8.00364, 41.39442 ] } },
{ "type": "Feature", "properties": { "gid": 0, "id": null, "nome": "Estádio Municipal de Celorico de Basto", "Toponimo": null, "DESIGNACAO": null, "localidade": "Celorico de Basto", "freguesia": "Britelo", "concelho": "Celorico de Basto", "distrito": "Braga" }, "geometry": { "type": "Point", "coordinates": [ -7.99076, 41.39584 ] } },
{ "type": "Feature", "properties": { "gid": 0, "id": null, "nome": "Campo de futebol da Rasa, Fermil", "Toponimo": null, "DESIGNACAO": null, "localidade": "Fermil de Basto", "freguesia": "Molares", "concelho": "Celorico de Basto", "distrito": "Braga" }, "geometry": { "type": "Point", "coordinates": [ -7.99185, 41.42078 ] } },
{ "type": "Feature", "properties": { "gid": 0, "id": null, "nome": "Campo de futebol Jerónimo Pacheco, Gandarela", "Toponimo": null, "DESIGNACAO": null, "localidade": "Gandarela", "freguesia": "Basto (S. Clemente)", "concelho": "Celorico de Basto", "distrito": "Braga" }, "geometry": { "type": "Point", "coordinates": [ -8.04414, 41.45828 ] } },
{ "type": "Feature", "properties": { "gid": 0, "id": null, "nome": "Campo de futebol de Agilde", "Toponimo": null, "DESIGNACAO": null, "localidade": null, "freguesia": "Agilde", "concelho": "Celorico de Basto", "distrito": "Braga" }, "geometry": { "type": "Point", "coordinates": [ -8.10559, 41.36065 ] } },
{ "type": "Feature", "properties": { "gid": 0, "id": null, "nome": "Campo de futebol da ASCUVA", "Toponimo": null, "DESIGNACAO": null, "localidade": null, "freguesia": "Vale de Bouro", "concelho": "Celorico de Basto", "distrito": "Braga" }, "geometry": { "type": "Point", "coordinates": [ -8.01104, 41.44498 ] } },
{ "type": "Feature", "properties": { "gid": 0, "id": null, "nome": "Polidesportivo descoberto do Parque do Freixieiro", "Toponimo": null, "DESIGNACAO": null, "localidade": "Celorico de Basto", "freguesia": "Britelo", "concelho": "Celorico de Basto", "distrito": "Braga" }, "geometry": { "type": "Point", "coordinates": [ -8.00022, 41.3909 ] } },
{ "type": "Feature", "properties": { "gid": 0, "id": null, "nome": "Polidesportivo descoberto de Arnoia", "Toponimo": null, "DESIGNACAO": null, "localidade": "Celorico de Basto", "freguesia": "Britelo", "concelho": "Celorico de Basto", "distrito": "Braga" }, "geometry": { "type": "Point", "coordinates": [ -8.01313, 41.37319 ] } },
{ "type": "Feature", "properties": { "gid": 0, "id": null, "nome": "Polidesportivo descoberto da Mota", "Toponimo": null, "DESIGNACAO": null, "localidade": "Celorico de Basto", "freguesia": "Britelo", "concelho": "Celorico de Basto", "distrito": "Braga" }, "geometry": { "type": "Point", "coordinates": [ -8.09638, 41.37229 ] } },
{ "type": "Feature", "properties": { "gid": 0, "id": null, "nome": "Polidesportivo descoberto da Gandarela", "Toponimo": null, "DESIGNACAO": null, "localidade": "Gandarela de Basto", "freguesia": "Basto (S. Clemente)", "concelho": "Celorico de Basto", "distrito": "Braga" }, "geometry": { "type": "Point", "coordinates": [ -8.03087, 41.45885 ] } },
{ "type": "Feature", "properties": { "gid": 0, "id": null, "nome": "Polidesportivo descoberto de Agilde", "Toponimo": null, "DESIGNACAO": null, "localidade": null, "freguesia": "Agilde", "concelho": "Celorico de Basto", "distrito": "Braga" }, "geometry": { "type": "Point", "coordinates": [ -8.13626, 41.36299 ] } },
{ "type": "Feature", "properties": { "gid": 0, "id": null, "nome": "Polidesportivo descoberto de Caçarilhe", "Toponimo": null, "DESIGNACAO": null, "localidade": null, "freguesia": null, "concelho": "Celorico de Basto", "distrito": "Braga" }, "geometry": { "type": "Point", "coordinates": [ -8.0432, 41.42373 ] } },
{ "type": "Feature", "properties": { "gid": 0, "id": null, "nome": "Polidesportivo descoberto de Canedo", "Toponimo": null, "DESIGNACAO": null, "localidade": null, "freguesia": null, "concelho": "Celorico de Basto", "distrito": "Braga" }, "geometry": { "type": "Point", "coordinates": [ -7.96365, 41.44166 ] } },
{ "type": "Feature", "properties": { "gid": 0, "id": null, "nome": "Polidesportivo descoberto de Codessoso", "Toponimo": null, "DESIGNACAO": null, "localidade": null, "freguesia": "Codessoso", "concelho": "Celorico de Basto", "distrito": "Braga" }, "geometry": { "type": "Point", "coordinates": [ -8.03545, 41.33547 ] } },
{ "type": "Feature", "properties": { "gid": 0, "id": null, "nome": "Polidesportivo descoberto de Fermil", "Toponimo": null, "DESIGNACAO": null, "localidade": "Veade", "freguesia": null, "concelho": "Celorico de Basto", "distrito": "Braga" }, "geometry": { "type": "Point", "coordinates": [ -7.99359, 41.42272 ] } },
{ "type": "Feature", "properties": { "gid": 0, "id": null, "nome": "Polidesportivo descoberto de Moreira do Castelo", "Toponimo": null, "DESIGNACAO": null, "localidade": null, "freguesia": "Moreira do Castelo", "concelho": "Celorico de Basto", "distrito": "Braga" }, "geometry": { "type": "Point", "coordinates": [ -8.06303, 41.34916 ] } },
{ "type": "Feature", "properties": { "gid": 0, "id": null, "nome": "Polidesportivo descoberto do Rego", "Toponimo": null, "DESIGNACAO": null, "localidade": "Rego", "freguesia": "Rego", "concelho": "Celorico de Basto", "distrito": "Braga" }, "geometry": { "type": "Point", "coordinates": [ -8.08464, 41.42364 ] } },
{ "type": "Feature", "properties": { "gid": 0, "id": null, "nome": "Polidesportivo descoberto de Vale de Bouro", "Toponimo": null, "DESIGNACAO": null, "localidade": null, "freguesia": "Vale de Bouro", "concelho": "Celorico de Basto", "distrito": "Braga" }, "geometry": { "type": "Point", "coordinates": [ -8.00928, 41.44172 ] } },
{ "type": "Feature", "properties": { "gid": 0, "id": null, "nome": "Polidesportivo descoberto de Ribas", "Toponimo": null, "DESIGNACAO": null, "localidade": null, "freguesia": "Ribas", "concelho": "Celorico de Basto", "distrito": "Braga" }, "geometry": { "type": "Point", "coordinates": [ -8.01671, 41.45701 ] } },
{ "type": "Feature", "properties": { "gid": 0, "id": null, "nome": "Pavilhão desportivo da Mota", "Toponimo": null, "DESIGNACAO": null, "localidade": "Mota", "freguesia": "Britelo", "concelho": "Celorico de Basto", "distrito": "Braga" }, "geometry": { "type": "Point", "coordinates": [ -8.09399, 41.37228 ] } },
{ "type": "Feature", "properties": { "gid": 0, "id": null, "nome": "Campo de Tiro do Clube de Caça e Pesca de Celorico de Basto", "Toponimo": null, "DESIGNACAO": null, "localidade": "Lordelo-Veade", "freguesia": "Veade", "concelho": "Celorico de Basto", "distrito": "Braga" }, "geometry": { "type": "Point", "coordinates": [ -7.97885, 41.40501 ] } },
{ "type": "Feature", "properties": { "gid": 0, "id": null, "nome": "Mini campo de jogos da zona de lazer do Freixieiro", "Toponimo": null, "DESIGNACAO": null, "localidade": "Celorico de Basto", "freguesia": "Britelo", "concelho": "Celorico de Basto", "distrito": "Braga" }, "geometry": { "type": "Point", "coordinates": [ -8.00646, 41.39112 ] } },
{ "type": "Feature", "properties": { "gid": 0, "id": null, "nome": "Campo de futebol da Cruz", "Toponimo": null, "DESIGNACAO": null, "localidade": "Celorico de Basto", "freguesia": "Britelo", "concelho": "Celorico de Basto", "distrito": "Braga" }, "geometry": { "type": "Point", "coordinates": [ -7.99171, 41.38581 ] } },
{ "type": "Feature", "properties": { "gid": 0, "id": null, "nome": "Centro Hípico e Desportivo de Carvalho", "Toponimo": null, "DESIGNACAO": null, "localidade": "Carvalho", "freguesia": "Carvalho", "concelho": "Celorico de Basto", "distrito": "Braga" }, "geometry": { "type": "Point", "coordinates": [ -8.08021, 41.38512 ] } },
{ "type": "Feature", "properties": { "gid": 0, "id": null, "nome": "Campo de futebol de Gagos", "Toponimo": null, "DESIGNACAO": null, "localidade": null, "freguesia": "Gagos", "concelho": "Celorico de Basto", "distrito": "Braga" }, "geometry": { "type": "Point", "coordinates": [ -8.00941, 41.42928 ] } },
{ "type": "Feature", "properties": { "gid": 0, "id": null, "nome": "Court de ténis do Clube de Caça e Pesca de Celorico de Basto", "Toponimo": null, "DESIGNACAO": null, "localidade": "Lordelo-Veade", "freguesia": "Veade", "concelho": "Celorico de Basto", "distrito": "Braga" }, "geometry": { "type": "Point", "coordinates": [ -7.97962, 41.40514 ] } },
{ "type": "Feature", "properties": { "gid": 0, "id": null, "nome": "Campo de futebol de 7", "Toponimo": null, "DESIGNACAO": null, "localidade": null, "freguesia": "Veade", "concelho": "Celorico de Basto", "distrito": "Braga" }, "geometry": { "type": "Point", "coordinates": [ -7.9699, 41.41112 ] } },
{ "type": "Feature", "properties": { "gid": 0, "id": null, "nome": "Campo de futebol de Nespereira", "Toponimo": null, "DESIGNACAO": null, "localidade": null, "freguesia": "Vale de Bouro", "concelho": "Celorico de Basto", "distrito": "Braga" }, "geometry": { "type": "Point", "coordinates": [ -8.02867, 41.4319 ] } },
{ "type": "Feature", "properties": { "gid": 0, "id": null, "nome": "Campo de futebol do Calvário", "Toponimo": null, "DESIGNACAO": null, "localidade": "Rego", "freguesia": "Rego", "concelho": "Celorico de Basto", "distrito": "Braga" }, "geometry": { "type": "Point", "coordinates": [ -8.08695, 41.41773 ] } },
{ "type": "Feature", "properties": { "gid": 0, "id": null, "nome": "Campo de futebol de Ourilhe", "Toponimo": null, "DESIGNACAO": null, "localidade": null, "freguesia": "Ourilhe", "concelho": null, "distrito": null }, "geometry": { "type": "Point", "coordinates": [ -8.02544, 41.40952 ] } },
{ "type": "Feature", "properties": { "gid": 0, "id": null, "nome": "Campo de futebol de Infesta", "Toponimo": null, "DESIGNACAO": null, "localidade": null, "freguesia": "Infesta", "concelho": "Celorico de Basto", "distrito": "Braga" }, "geometry": { "type": "Point", "coordinates": [ -8.04139, 41.39242 ] } },
{ "type": "Feature", "properties": { "gid": 0, "id": null, "nome": "Campo de futebol de Cabanelas", "Toponimo": null, "DESIGNACAO": null, "localidade": null, "freguesia": "Borba da Montanha", "concelho": "Celorico de Basto", "distrito": "Braga" }, "geometry": { "type": "Point", "coordinates": [ -8.10837, 41.39175 ] } },
{ "type": "Feature", "properties": { "gid": 0, "id": null, "nome": "Campo de futebol de Cernadas", "Toponimo": null, "DESIGNACAO": null, "localidade": null, "freguesia": null, "concelho": null, "distrito": null }, "geometry": { "type": "Point", "coordinates": [ -8.03721, 41.37219 ] } },
{ "type": "Feature", "properties": { "gid": 0, "id": null, "nome": "Campo de futebol de Caçarilhe", "Toponimo": null, "DESIGNACAO": null, "localidade": null, "freguesia": null, "concelho": null, "distrito": null }, "geometry": { "type": "Point", "coordinates": [ -8.04786, 41.42179 ] } },
{ "type": "Feature", "properties": { "gid": 0, "id": null, "nome": "Campo de futebol de Sto António - Cerdeirinhas", "Toponimo": null, "DESIGNACAO": null, "localidade": null, "freguesia": null, "concelho": null, "distrito": null }, "geometry": { "type": "Point", "coordinates": [ -7.95125, 41.44629 ] } },
{ "type": "Feature", "properties": { "gid": 0, "id": null, "nome": "Campo de futebol 4 de Maio - Pedras Alvas", "Toponimo": null, "DESIGNACAO": null, "localidade": null, "freguesia": null, "concelho": null, "distrito": null }, "geometry": { "type": "Point", "coordinates": [ -8.02384, 41.345 ] } },
{ "type": "Feature", "properties": { "gid": 0, "id": null, "nome": "Polidesportivo da Casa do Povo de Fervença", "Toponimo": null, "DESIGNACAO": null, "localidade": null, "freguesia": null, "concelho": null, "distrito": null }, "geometry": { "type": "Point", "coordinates": [ -8.09329, 41.37122 ] } },
{ "type": "Feature", "properties": { "gid": 0, "id": null, "nome": "Campo de futebol de Pedras Brancas", "Toponimo": null, "DESIGNACAO": null, "localidade": null, "freguesia": null, "concelho": null, "distrito": null }, "geometry": { "type": "Point", "coordinates": [ -8.07482, 41.34294 ] } },
{ "type": "Feature", "properties": { "gid": 0, "id": null, "nome": "Campo de futebol de Ribas - Portela", "Toponimo": null, "DESIGNACAO": null, "localidade": null, "freguesia": null, "concelho": null, "distrito": null }, "geometry": { "type": "Point", "coordinates": [ -8.01483, 41.46494 ] } },
{ "type": "Feature", "properties": { "gid": 0, "id": null, "nome": "Campo de futebol de Vilar", "Toponimo": null, "DESIGNACAO": null, "localidade": null, "freguesia": null, "concelho": null, "distrito": null }, "geometry": { "type": "Point", "coordinates": [ -8.0432, 41.47372 ] } },
{ "type": "Feature", "properties": { "gid": 0, "id": null, "nome": "Campo de futebol em Lordelo", "Toponimo": null, "DESIGNACAO": null, "localidade": null, "freguesia": null, "concelho": null, "distrito": null }, "geometry": { "type": "Point", "coordinates": [ -7.97996, 41.40369 ] } },
{ "type": "Feature", "properties": { "gid": 0, "id": "0", "nome": null, "Toponimo": null, "DESIGNACAO": null, "localidade": "Gémeos CBT", "freguesia": "União das freguesias de Britelo, Gémeos e Ourilhe", "concelho": "Celorico de Basto", "distrito": "Braga" }, "geometry": { "type": "Point", "coordinates": [ -8.00242, 41.39148 ] } },
{ "type": "Feature", "properties": { "gid": 0, "id": "0", "nome": null, "Toponimo": null, "DESIGNACAO": null, "localidade": "Gémeos CBT", "freguesia": "União das freguesias de Britelo, Gémeos e Ourilhe", "concelho": "Celorico de Basto", "distrito": "Braga" }, "geometry": { "type": "Point", "coordinates": [ -8.00277, 41.39174 ] } },
{ "type": "Feature", "properties": { "gid": 0, "id": "0", "nome": null, "Toponimo": null, "DESIGNACAO": null, "localidade": "Gémeos CBT", "freguesia": "União das freguesias de Britelo, Gémeos e Ourilhe", "concelho": "Celorico de Basto", "distrito": "Braga" }, "geometry": { "type": "Point", "coordinates": [ -8.00186, 41.39162 ] } },
{ "type": "Feature", "properties": { "gid": 0, "id": "0", "nome": null, "Toponimo": null, "DESIGNACAO": null, "localidade": "Arnóia CBT", "freguesia": "Arnoia", "concelho": "Celorico de Basto", "distrito": "Braga" }, "geometry": { "type": "Point", "coordinates": [ -8.05467, 41.36376 ] } },
{ "type": "Feature", "properties": { "gid": 0, "id": "0", "nome": null, "Toponimo": null, "DESIGNACAO": null, "localidade": "Rego CBT", "freguesia": "Rego", "concelho": "Celorico de Basto", "distrito": "Braga" }, "geometry": { "type": "Point", "coordinates": [ -8.08301, 41.42982 ] } },
{ "type": "Feature", "properties": { "gid": 0, "id": "0", "nome": null, "Toponimo": null, "DESIGNACAO": null, "localidade": "Celorico de Basto", "freguesia": "União das freguesias de Britelo, Gémeos e Ourilhe", "concelho": "Celorico de Basto", "distrito": "Braga" }, "geometry": { "type": "Point", "coordinates": [ -8.00083, 41.38639 ] } },
{ "type": "Feature", "properties": { "gid": 0, "id": null, "nome": "Parque de Lazer de Ourilhe", "Toponimo": null, "DESIGNACAO": null, "localidade": "Celorico de Basto", "freguesia": "União das freguesias de Britelo, Gémeos e Ourilhe", "concelho": "Celorico de Basto", "distrito": "Braga" }, "geometry": { "type": "Point", "coordinates": [ -8.02058, 41.41046 ] } },
{ "type": "Feature", "properties": { "gid": 0, "id": null, "nome": "Parque de Lazer de S. Mamede, Canedo de Basto", "Toponimo": null, "DESIGNACAO": null, "localidade": "Celorico de Basto", "freguesia": "Canedo de Basto", "concelho": "Celorico de Basto", "distrito": "Braga" }, "geometry": { "type": "Point", "coordinates": [ -7.93946, 41.44384 ] } },
{ "type": "Feature", "properties": { "gid": 0, "id": null, "nome": "Parque de Lazer de Agilde", "Toponimo": null, "DESIGNACAO": null, "localidade": "Celorico de Basto", "freguesia": "Agilde", "concelho": "Celorico de Basto", "distrito": "Braga" }, "geometry": { "type": "Point", "coordinates": [ -8.13586, 41.36277 ] } },
{ "type": "Feature", "properties": { "gid": 0, "id": null, "nome": "Parque de Lazer do Viso", "Toponimo": null, "DESIGNACAO": null, "localidade": "Celorico de Basto", "freguesia": "Rego", "concelho": "Celorico de Basto", "distrito": "Braga" }, "geometry": { "type": "Point", "coordinates": [ -8.06387, 41.41259 ] } },
{ "type": "Feature", "properties": { "gid": 0, "id": null, "nome": "Parque de Lazer de Fiães, Codessoso", "Toponimo": null, "DESIGNACAO": null, "localidade": "Celorico de Basto", "freguesia": "Codessoso", "concelho": "Celorico de Basto", "distrito": "Braga" }, "geometry": { "type": "Point", "coordinates": [ -8.03529, 41.33523 ] } },
{ "type": "Feature", "properties": { "gid": 0, "id": null, "nome": "Miradouro do Castelo de Arnoia", "Toponimo": null, "DESIGNACAO": null, "localidade": "Celorico de Basto", "freguesia": "Arnoia", "concelho": "Celorico de Basto", "distrito": "Braga" }, "geometry": { "type": "Point", "coordinates": [ -8.0518, 41.36352 ] } },
{ "type": "Feature", "properties": { "gid": 0, "id": null, "nome": "Miradouro do Viso", "Toponimo": null, "DESIGNACAO": null, "localidade": "Celorico de Basto", "freguesia": "Rego", "concelho": "Celorico de Basto", "distrito": "Braga" }, "geometry": { "type": "Point", "coordinates": [ -8.06265, 41.41195 ] } },
{ "type": "Feature", "properties": { "gid": 0, "id": null, "nome": "Miradouro do Ladário", "Toponimo": null, "DESIGNACAO": null, "localidade": "Celorico de Basto", "freguesia": "Vale de Bouro", "concelho": "Celorico de Basto", "distrito": "Braga" }, "geometry": { "type": "Point", "coordinates": [ -7.99127, 41.46166 ] } },
{ "type": "Feature", "properties": { "gid": 0, "id": null, "nome": "Miradouro da Ponte do Caniço", "Toponimo": null, "DESIGNACAO": null, "localidade": "Celorico de Basto", "freguesia": "União das freguesias de Veade, Gagos e Molares", "concelho": "Celorico de Basto", "distrito": "Braga" }, "geometry": { "type": "Point", "coordinates": [ -7.97584, 41.40396 ] } },
{ "type": "Feature", "properties": { "gid": 0, "id": null, "nome": "Casa do Prado", "Toponimo": null, "DESIGNACAO": null, "localidade": "Celorico de Basto", "freguesia": "União das freguesias de Britelo, Gémeos e Ourilhe", "concelho": "Celorico de Basto", "distrito": "Braga" }, "geometry": { "type": "Point", "coordinates": [ -7.9988, 41.39229 ] } },
{ "type": "Feature", "properties": { "gid": 0, "id": null, "nome": "Parque Urbano do Freixieiro", "Toponimo": null, "DESIGNACAO": null, "localidade": "Celorico de Basto", "freguesia": "União das freguesias de Britelo, Gémeos e Ourilhe", "concelho": "Celorico de Basto", "distrito": "Braga" }, "geometry": { "type": "Point", "coordinates": [ -8.00059, 41.38966 ] } },
{ "type": "Feature", "properties": { "gid": 0, "id": null, "nome": "Parque Lúdico de Boques", "Toponimo": null, "DESIGNACAO": null, "localidade": "Celorico de Basto", "freguesia": "União das freguesias de Britelo, Gémeos e Ourilhe", "concelho": "Celorico de Basto", "distrito": "Braga" }, "geometry": { "type": "Point", "coordinates": [ -8.00297, 41.39356 ] } },
{ "type": "Feature", "properties": { "gid": 0, "id": null, "nome": "Biblioteca Municipal", "Toponimo": null, "DESIGNACAO": null, "localidade": "Celorico de Basto", "freguesia": "União das freguesias de Britelo, Gémeos e Ourilhe", "concelho": "Celorico de Basto", "distrito": "Braga" }, "geometry": { "type": "Point", "coordinates": [ -8.00354, 41.39157 ] } },
{ "type": "Feature", "properties": { "gid": 0, "id": null, "nome": "Parque de Lazer de Fermil", "Toponimo": null, "DESIGNACAO": null, "localidade": "Fermil - CBT", "freguesia": "União das freguesias de Veade, Gagos e Molares", "concelho": "Celorico de Basto", "distrito": "Braga" }, "geometry": { "type": "Point", "coordinates": [ -7.9848, 41.42771 ] } },
{ "type": "Feature", "properties": { "gid": 0, "id": null, "nome": "Parque de Lazer do Rego", "Toponimo": null, "DESIGNACAO": null, "localidade": "Celorico de Basto", "freguesia": "Rego", "concelho": "Celorico de Basto", "distrito": "Braga" }, "geometry": { "type": "Point", "coordinates": [ -8.09701, 41.4258 ] } },
{ "type": "Feature", "properties": { "gid": 0, "id": null, "nome": "Parque Lúdico da Vila de Gandarela", "Toponimo": null, "DESIGNACAO": null, "localidade": "Gandarela - CBT", "freguesia": "Basto (S. Clemente)", "concelho": "Celorico de Basto", "distrito": "Braga" }, "geometry": { "type": "Point", "coordinates": [ -8.03071, 41.45851 ] } },
{ "type": "Feature", "properties": { "gid": 0, "id": null, "nome": "Restaurante Sabores da Quinta", "Toponimo": null, "DESIGNACAO": null, "localidade": "Molares CBT", "freguesia": "União das freguesias de Veade, Gagos e Molares", "concelho": "Celorico de Basto", "distrito": "Braga" }, "geometry": { "type": "Point", "coordinates": [ -7.98606, 41.41589 ] } },
{ "type": "Feature", "properties": { "gid": 0, "id": null, "nome": "Restaurante Os Galegos", "Toponimo": null, "DESIGNACAO": null, "localidade": "Fervença CBT", "freguesia": "Fervença", "concelho": "Celorico de Basto", "distrito": "Braga" }, "geometry": { "type": "Point", "coordinates": [ -8.08903, 41.35716 ] } },
{ "type": "Feature", "properties": { "gid": 0, "id": null, "nome": "Restaurante O Cantinho", "Toponimo": null, "DESIGNACAO": null, "localidade": "Celorico de Basto", "freguesia": "União das freguesias de Britelo, Gémeos e Ourilhe", "concelho": "Celorico de Basto", "distrito": "Braga" }, "geometry": { "type": "Point", "coordinates": [ -8.00002, 41.38918 ] } },
{ "type": "Feature", "properties": { "gid": 0, "id": null, "nome": "Restaurante O Grilo", "Toponimo": null, "DESIGNACAO": null, "localidade": "Celorico de Basto", "freguesia": "União das freguesias de Britelo, Gémeos e Ourilhe", "concelho": "Celorico de Basto", "distrito": "Braga" }, "geometry": { "type": "Point", "coordinates": [ -7.99687, 41.39325 ] } },
{ "type": "Feature", "properties": { "gid": 0, "id": null, "nome": "Restaurante Quinta do Forno", "Toponimo": null, "DESIGNACAO": null, "localidade": "Celorico de Basto", "freguesia": "União das freguesias de Britelo, Gémeos e Ourilhe", "concelho": "Celorico de Basto", "distrito": "Braga" }, "geometry": { "type": "Point", "coordinates": [ -7.99932, 41.39947 ] } },
{ "type": "Feature", "properties": { "gid": 0, "id": null, "nome": "Restaurante Quinta da Fontinha", "Toponimo": null, "DESIGNACAO": null, "localidade": "Borba da Montanha CBT", "freguesia": "Borba da Montanha", "concelho": "Celorico de Basto", "distrito": "Braga" }, "geometry": { "type": "Point", "coordinates": [ -8.07979, 41.39316 ] } },
{ "type": "Feature", "properties": { "gid": 0, "id": null, "nome": "Restaurante Santiago", "Toponimo": null, "DESIGNACAO": null, "localidade": "Celorico de Basto", "freguesia": "União das freguesias de Britelo, Gémeos e Ourilhe", "concelho": "Celorico de Basto", "distrito": "Braga" }, "geometry": { "type": "Point", "coordinates": [ -8.00107, 41.3868 ] } },
{ "type": "Feature", "properties": { "gid": 0, "id": null, "nome": "Adega Regional - Clube de Caça e Pesca de Celorico de Basto", "Toponimo": null, "DESIGNACAO": null, "localidade": "Lordelo", "freguesia": "União das freguesias de Veade, Gagos e Molares", "concelho": "Celorico de Basto", "distrito": "Braga" }, "geometry": { "type": "Point", "coordinates": [ -7.97913, 41.40503 ] } },
{ "type": "Feature", "properties": { "gid": 0, "id": null, "nome": "Restaurante A Forca", "Toponimo": null, "DESIGNACAO": null, "localidade": "Arnoia CBT", "freguesia": "Arnoia", "concelho": "Celorico de Basto", "distrito": "Braga" }, "geometry": { "type": "Point", "coordinates": [ -8.05495, 41.36327 ] } },
{ "type": "Feature", "properties": { "gid": 0, "id": null, "nome": "Restaurante Nova Vila", "Toponimo": null, "DESIGNACAO": null, "localidade": "Gémeos CBT", "freguesia": "União das freguesias de Britelo, Gémeos e Ourilhe", "concelho": "Celorico de Basto", "distrito": "Braga" }, "geometry": { "type": "Point", "coordinates": [ -8.00377, 41.3921 ] } },
{ "type": "Feature", "properties": { "gid": 0, "id": null, "nome": "Restaurante Aldeia Nova", "Toponimo": null, "DESIGNACAO": null, "localidade": "Gandarela", "freguesia": "Ribas", "concelho": "Celorico de Basto", "distrito": "Braga" }, "geometry": { "type": "Point", "coordinates": [ -8.02304, 41.4608 ] } },
{ "type": "Feature", "properties": { "gid": 0, "id": null, "nome": "Restaurante Adelina", "Toponimo": null, "DESIGNACAO": null, "localidade": "Celorico de Basto", "freguesia": "União das freguesias de Britelo, Gémeos e Ourilhe", "concelho": "Celorico de Basto", "distrito": "Braga" }, "geometry": { "type": "Point", "coordinates": [ -8.00093, 41.38705 ] } },
{ "type": "Feature", "properties": { "gid": 0, "id": null, "nome": "Restaurante Mota Grill", "Toponimo": null, "DESIGNACAO": null, "localidade": "Mota", "freguesia": "Fervença", "concelho": "Celorico de Basto", "distrito": "Braga" }, "geometry": { "type": "Point", "coordinates": [ -8.09261, 41.37065 ] } },
{ "type": "Feature", "properties": { "gid": 0, "id": null, "nome": "Restaurante Costa Verde", "Toponimo": null, "DESIGNACAO": null, "localidade": "Cerdeira - Ribas", "freguesia": "Ribas", "concelho": "Celorico de Basto", "distrito": "Braga" }, "geometry": { "type": "Point", "coordinates": [ -8.05352, 41.45431 ] } },
{ "type": "Feature", "properties": { "gid": 0, "id": null, "nome": "Restaurante O Bilhó", "Toponimo": null, "DESIGNACAO": null, "localidade": "Arnoia CBT", "freguesia": "Arnoia", "concelho": "Celorico de Basto", "distrito": "Braga" }, "geometry": { "type": "Point", "coordinates": [ -8.02722, 41.36556 ] } },
{ "type": "Feature", "properties": { "gid": 0, "id": null, "nome": "Restaurante Varanda das Camélias", "Toponimo": null, "DESIGNACAO": null, "localidade": "Celorico de Basto", "freguesia": "União das freguesias de Britelo, Gémeos e Ourilhe", "concelho": "Celorico de Basto", "distrito": "Braga" }, "geometry": { "type": "Point", "coordinates": [ -8.00435, 41.39276 ] } },
{ "type": "Feature", "properties": { "gid": 0, "id": null, "nome": "Pizzaria Invictus", "Toponimo": null, "DESIGNACAO": null, "localidade": null, "freguesia": null, "concelho": null, "distrito": null }, "geometry": { "type": "Point", "coordinates": [ -7.99912, 41.39082 ] } },
{ "type": "Feature", "properties": { "gid": 0, "id": null, "nome": "Restaurante da Alzira", "Toponimo": null, "DESIGNACAO": null, "localidade": null, "freguesia": null, "concelho": null, "distrito": null }, "geometry": { "type": "Point", "coordinates": [ -8.00119, 41.3829 ] } },
{ "type": "Feature", "properties": { "gid": 0, "id": null, "nome": "Churrascão", "Toponimo": null, "DESIGNACAO": null, "localidade": null, "freguesia": null, "concelho": null, "distrito": null }, "geometry": { "type": "Point", "coordinates": [ -7.9981, 41.3924 ] } },
{ "type": "Feature", "properties": { "gid": 0, "id": null, "nome": "Karlus Kebab", "Toponimo": null, "DESIGNACAO": null, "localidade": null, "freguesia": null, "concelho": null, "distrito": null }, "geometry": { "type": "Point", "coordinates": [ -7.99926, 41.39095 ] } },
{ "type": "Feature", "properties": { "gid": 0, "id": null, "nome": "Café Restaurante Daniel", "Toponimo": null, "DESIGNACAO": null, "localidade": null, "freguesia": null, "concelho": null, "distrito": null }, "geometry": { "type": "Point", "coordinates": [ -8.02537, 41.34088 ] } },
{ "type": "Feature", "properties": { "gid": 0, "id": null, "nome": "Tasca da Clarinha", "Toponimo": null, "DESIGNACAO": null, "localidade": null, "freguesia": null, "concelho": null, "distrito": null }, "geometry": { "type": "Point", "coordinates": [ -8.0752, 41.38175 ] } },
{ "type": "Feature", "properties": { "gid": 0, "id": null, "nome": "Restaurante O Queirós", "Toponimo": null, "DESIGNACAO": null, "localidade": null, "freguesia": null, "concelho": null, "distrito": null }, "geometry": { "type": "Point", "coordinates": [ -8.1039, 41.38932 ] } },
{ "type": "Feature", "properties": { "gid": 0, "id": null, "nome": "Quinta da Travessa", "Toponimo": null, "DESIGNACAO": null, "localidade": null, "freguesia": null, "concelho": null, "distrito": null }, "geometry": { "type": "Point", "coordinates": [ -7.98166, 41.4408 ] } },
{ "type": "Feature", "properties": { "gid": 0, "id": null, "nome": "Taberna Teixeira", "Toponimo": null, "DESIGNACAO": null, "localidade": null, "freguesia": null, "concelho": null, "distrito": null }, "geometry": { "type": "Point", "coordinates": [ -7.95722, 41.44427 ] } },
{ "type": "Feature", "properties": { "gid": 0, "id": null, "nome": "Adega Bons Costumes", "Toponimo": null, "DESIGNACAO": null, "localidade": null, "freguesia": null, "concelho": null, "distrito": null }, "geometry": { "type": "Point", "coordinates": [ -8.07142, 41.38145 ] } },
{ "type": "Feature", "properties": { "gid": 0, "id": null, "nome": "Loja Interativa de Turismo de Celorico  de Basto", "Toponimo": null, "DESIGNACAO": null, "localidade": "Celorico de Basto", "freguesia": "União das freguesias de Britelo, Gémeos e Ourilhe", "concelho": "Celorico  de Basto", "distrito": "Braga" }, "geometry": { "type": "Point", "coordinates": [ -7.99872, 41.39166 ] } },
{ "type": "Feature", "properties": { "gid": 0, "id": null, "nome": "Quinta de Santa Cristina - vinhos", "Toponimo": null, "DESIGNACAO": null, "localidade": "Veade CBT", "freguesia": "União das freguesias de Veade, Gagos e Molares", "concelho": "Celorico de Basto", "distrito": "Braga" }, "geometry": { "type": "Point", "coordinates": [ -8.00268, 41.40585 ] } },
{ "type": "Feature", "properties": { "gid": 0, "id": null, "nome": "Quinta das Escomoeiras - enoturismo", "Toponimo": null, "DESIGNACAO": null, "localidade": "Arnoia CBT", "freguesia": "Arnoia", "concelho": "Celorico de Basto", "distrito": "Braga" }, "geometry": { "type": "Point", "coordinates": [ -8.00006, 41.34435 ] } },
{ "type": "Feature", "properties": { "gid": 0, "id": null, "nome": "Quinta da Raza, Lda - Vinhos", "Toponimo": null, "DESIGNACAO": null, "localidade": "Veade CBT", "freguesia": "União das freguesias de Veade, Gagos e Molares", "concelho": "Celorico de Basto", "distrito": "Braga" }, "geometry": { "type": "Point", "coordinates": [ -7.97334, 41.42623 ] } },
{ "type": "Feature", "properties": { "gid": 0, "id": null, "nome": "Escola Profissional de Fermil - vinhos e produtos agrícolas", "Toponimo": null, "DESIGNACAO": null, "localidade": null, "freguesia": "União das freguesias de Veade, Gagos e Molares", "concelho": "Celorico de Basto", "distrito": "Braga" }, "geometry": { "type": "Point", "coordinates": [ -7.99197, 41.41431 ] } },
{ "type": "Feature", "properties": { "gid": 0, "id": null, "nome": "Quinta do Barreirinho - vinhos", "Toponimo": null, "DESIGNACAO": null, "localidade": null, "freguesia": "Codessoso", "concelho": "Celorico de Basto", "distrito": "Braga" }, "geometry": { "type": "Point", "coordinates": [ -8.01285, 41.34428 ] } },
{ "type": "Feature", "properties": { "gid": 0, "id": null, "nome": "Quinta de Soutelos - vinhos", "Toponimo": null, "DESIGNACAO": null, "localidade": null, "freguesia": "União das freguesias de Canedo de Basto e Corgo", "concelho": "Celorico de Basto", "distrito": "Braga" }, "geometry": { "type": "Point", "coordinates": [ -7.96748, 41.43203 ] } },
{ "type": "Feature", "properties": { "gid": 0, "id": null, "nome": "Casa Senhorial do Reguengo - vinhos espumamtes", "Toponimo": null, "DESIGNACAO": null, "localidade": null, "freguesia": "Vale de Bouro", "concelho": "Celorico de Basto", "distrito": "Braga" }, "geometry": { "type": "Point", "coordinates": [ -8.01492, 41.4414 ] } },
{ "type": "Feature", "properties": { "gid": 0, "id": null, "nome": "Adega Molares (Quinta da Cerca)", "Toponimo": null, "DESIGNACAO": null, "localidade": null, "freguesia": "União das freguesias de Veade, Gagos e Molares", "concelho": "Celorico de Basto", "distrito": "Braga" }, "geometry": { "type": "Point", "coordinates": [ -7.98934, 41.41673 ] } },
{ "type": "Feature", "properties": { "gid": 0, "id": null, "nome": "Quinta de Real de Baixo - vinhos", "Toponimo": null, "DESIGNACAO": null, "localidade": null, "freguesia": "Fervença", "concelho": "Celorico de Basto", "distrito": "Braga" }, "geometry": { "type": "Point", "coordinates": [ -8.08868, 41.35598 ] } },
{ "type": "Feature", "properties": { "gid": 0, "id": null, "nome": "Infusa - vinhos da Quinta de Miramontes", "Toponimo": null, "DESIGNACAO": null, "localidade": null, "freguesia": "Fervença", "concelho": "Celorico de Basto", "distrito": "Braga" }, "geometry": { "type": "Point", "coordinates": [ -8.09322, 41.34846 ] } },
{ "type": "Feature", "properties": { "gid": 0, "id": null, "nome": "Pé de Limão, unipessoal Lda. - vinhos", "Toponimo": null, "DESIGNACAO": null, "localidade": null, "freguesia": "Arnoia", "concelho": "Celorico de Basto", "distrito": "Braga" }, "geometry": { "type": "Point", "coordinates": [ -7.98848, 41.37865 ] } },
{ "type": "Feature", "properties": { "gid": 0, "id": null, "nome": null, "Toponimo": null, "DESIGNACAO": null, "localidade": null, "freguesia": "União das freguesias de Britelo, Gémeos e Ourilhe", "concelho": "Celorico de Basto", "distrito": "Braga" }, "geometry": { "type": "Point", "coordinates": [ -8.0214, 41.38217 ] } },
{ "type": "Feature", "properties": { "gid": 0, "id": "1", "nome": null, "Toponimo": "Alto da Forca  1", "DESIGNACAO": null, "localidade": null, "freguesia": "Fervença", "concelho": "Celorico de Basto", "distrito": "Braga" }, "geometry": { "type": "Point", "coordinates": [ -8.06399, 41.36626 ] } },
{ "type": "Feature", "properties": { "gid": 0, "id": "2", "nome": null, "Toponimo": "Alto da Forca 2", "DESIGNACAO": null, "localidade": null, "freguesia": "Arnoia", "concelho": "Celorico de Basto", "distrito": "Braga" }, "geometry": { "type": "Point", "coordinates": [ -8.06269, 41.36543 ] } },
{ "type": "Feature", "properties": { "gid": 0, "id": "3", "nome": null, "Toponimo": "Carvalhais", "DESIGNACAO": null, "localidade": null, "freguesia": "Arnoia", "concelho": "Celorico de Basto", "distrito": "Braga" }, "geometry": { "type": "Point", "coordinates": [ -8.03019, 41.35821 ] } },
{ "type": "Feature", "properties": { "gid": 0, "id": "7", "nome": null, "Toponimo": "Casinha de Baixo", "DESIGNACAO": null, "localidade": null, "freguesia": "Arnoia", "concelho": "Celorico de Basto", "distrito": "Braga" }, "geometry": { "type": "Point", "coordinates": [ -7.99773, 41.37468 ] } },
{ "type": "Feature", "properties": { "gid": 0, "id": "8", "nome": null, "Toponimo": "Crasto de Cabanelas", "DESIGNACAO": null, "localidade": null, "freguesia": "Borba da Montanha", "concelho": "Celorico de Basto", "distrito": "Braga" }, "geometry": { "type": "Point", "coordinates": [ -8.10393, 41.39324 ] } },
{ "type": "Feature", "properties": { "gid": 0, "id": "9", "nome": null, "Toponimo": "Crasto de Murgido", "DESIGNACAO": null, "localidade": null, "freguesia": "Borba da Montanha", "concelho": "Celorico de Basto", "distrito": "Braga" }, "geometry": { "type": "Point", "coordinates": [ -8.10234, 41.39625 ] } },
{ "type": "Feature", "properties": { "gid": 0, "id": "10", "nome": null, "Toponimo": "Abrigo do Crasto de Murgido", "DESIGNACAO": null, "localidade": null, "freguesia": "Borba da Montanha", "concelho": "Celorico de Basto", "distrito": "Braga" }, "geometry": { "type": "Point", "coordinates": [ -8.1039, 41.39545 ] } },
{ "type": "Feature", "properties": { "gid": 0, "id": "11", "nome": null, "Toponimo": "Calvelo 2", "DESIGNACAO": null, "localidade": null, "freguesia": "Borba da Montanha", "concelho": "Celorico de Basto", "distrito": "Braga" }, "geometry": { "type": "Point", "coordinates": [ -8.10459, 41.40639 ] } },
{ "type": "Feature", "properties": { "gid": 0, "id": "12", "nome": null, "Toponimo": "Castro da Barrega 1", "DESIGNACAO": null, "localidade": null, "freguesia": "Borba da Montanha", "concelho": "Celorico de Basto", "distrito": "Braga" }, "geometry": { "type": "Point", "coordinates": [ -8.07163, 41.39254 ] } },
{ "type": "Feature", "properties": { "gid": 0, "id": "13", "nome": null, "Toponimo": "S. Lourenço", "DESIGNACAO": null, "localidade": null, "freguesia": "Borba da Montanha", "concelho": "Celorico de Basto", "distrito": "Braga" }, "geometry": { "type": "Point", "coordinates": [ -8.08302, 41.38488 ] } },
{ "type": "Feature", "properties": { "gid": 0, "id": "14", "nome": null, "Toponimo": "Poça de Pedra/Moura Grande", "DESIGNACAO": null, "localidade": null, "freguesia": "Borba da Montanha", "concelho": "Celorico de Basto", "distrito": "Braga" }, "geometry": { "type": "Point", "coordinates": [ -8.08431, 41.38097 ] } },
{ "type": "Feature", "properties": { "gid": 0, "id": "15", "nome": null, "Toponimo": "Ribeira", "DESIGNACAO": null, "localidade": null, "freguesia": "Borba da Montanha", "concelho": "Celorico de Basto", "distrito": "Braga" }, "geometry": { "type": "Point", "coordinates": [ -8.09277, 41.38731 ] } },
{ "type": "Feature", "properties": { "gid": 0, "id": "16", "nome": null, "Toponimo": "Porçã", "DESIGNACAO": null, "localidade": null, "freguesia": "Borba da Montanha", "concelho": "Celorico de Basto", "distrito": "Braga" }, "geometry": { "type": "Point", "coordinates": [ -8.09948, 41.40462 ] } },
{ "type": "Feature", "properties": { "gid": 0, "id": "17", "nome": null, "Toponimo": "Veiga", "DESIGNACAO": null, "localidade": null, "freguesia": "Agilde", "concelho": "Celorico de Basto", "distrito": "Braga" }, "geometry": { "type": "Point", "coordinates": [ -8.1301, 41.36564 ] } },
{ "type": "Feature", "properties": { "gid": 0, "id": "18", "nome": null, "Toponimo": "Arranhadouro 1", "DESIGNACAO": null, "localidade": null, "freguesia": "Basto (S. Clemente)", "concelho": "Celorico de Basto", "distrito": "Braga" }, "geometry": { "type": "Point", "coordinates": [ -8.07899, 41.44853 ] } },
{ "type": "Feature", "properties": { "gid": 0, "id": "19", "nome": null, "Toponimo": "Arranhadouro 2", "DESIGNACAO": null, "localidade": null, "freguesia": "Basto (S. Clemente)", "concelho": "Celorico de Basto", "distrito": "Braga" }, "geometry": { "type": "Point", "coordinates": [ -8.07956, 41.44905 ] } },
{ "type": "Feature", "properties": { "gid": 0, "id": "20", "nome": null, "Toponimo": "Arranhadouro 3", "DESIGNACAO": null, "localidade": null, "freguesia": "Basto (S. Clemente)", "concelho": "Celorico de Basto", "distrito": "Braga" }, "geometry": { "type": "Point", "coordinates": [ -8.07825, 41.44864 ] } },
{ "type": "Feature", "properties": { "gid": 0, "id": "21", "nome": null, "Toponimo": "Vale de Vinho", "DESIGNACAO": null, "localidade": null, "freguesia": "Basto (S. Clemente)", "concelho": "Celorico de Basto", "distrito": "Braga" }, "geometry": { "type": "Point", "coordinates": [ -8.06961, 41.44732 ] } },
{ "type": "Feature", "properties": { "gid": 0, "id": "22", "nome": null, "Toponimo": "Carregal", "DESIGNACAO": null, "localidade": null, "freguesia": "Basto (S. Clemente)", "concelho": "Celorico de Basto", "distrito": "Braga" }, "geometry": { "type": "Point", "coordinates": [ -8.06873, 41.45251 ] } },
{ "type": "Feature", "properties": { "gid": 0, "id": "23", "nome": null, "Toponimo": "Giestal 1", "DESIGNACAO": null, "localidade": null, "freguesia": "Basto (S. Clemente)", "concelho": "Celorico de Basto", "distrito": "Braga" }, "geometry": { "type": "Point", "coordinates": [ -8.06794, 41.45399 ] } },
{ "type": "Feature", "properties": { "gid": 0, "id": "24", "nome": null, "Toponimo": "Giestal 3", "DESIGNACAO": null, "localidade": null, "freguesia": "Basto (S. Clemente)", "concelho": "Celorico de Basto", "distrito": "Braga" }, "geometry": { "type": "Point", "coordinates": [ -8.06598, 41.4537 ] } },
{ "type": "Feature", "properties": { "gid": 0, "id": "25", "nome": null, "Toponimo": "Tapada de Penalva", "DESIGNACAO": null, "localidade": null, "freguesia": "Basto (S. Clemente)", "concelho": "Celorico de Basto", "distrito": "Braga" }, "geometry": { "type": "Point", "coordinates": [ -8.06627, 41.46324 ] } },
{ "type": "Feature", "properties": { "gid": 0, "id": "26", "nome": null, "Toponimo": "Pereira 1", "DESIGNACAO": null, "localidade": null, "freguesia": "Basto (S. Clemente)", "concelho": "Celorico de Basto", "distrito": "Braga" }, "geometry": { "type": "Point", "coordinates": [ -8.05846, 41.47858 ] } },
{ "type": "Feature", "properties": { "gid": 0, "id": "28", "nome": null, "Toponimo": "Crasto", "DESIGNACAO": null, "localidade": null, "freguesia": "Basto (S. Clemente)", "concelho": "Celorico de Basto", "distrito": "Braga" }, "geometry": { "type": "Point", "coordinates": [ -8.0306, 41.46707 ] } },
{ "type": "Feature", "properties": { "gid": 0, "id": "29", "nome": null, "Toponimo": "Tapada da Montanha", "DESIGNACAO": null, "localidade": null, "freguesia": "Agilde", "concelho": "Celorico de Basto", "distrito": "Braga" }, "geometry": { "type": "Point", "coordinates": [ -8.12362, 41.34814 ] } },
{ "type": "Feature", "properties": { "gid": 0, "id": "30", "nome": null, "Toponimo": "Calvelo 1", "DESIGNACAO": null, "localidade": null, "freguesia": "Borba da Montanha", "concelho": "Celorico de Basto", "distrito": "Braga" }, "geometry": { "type": "Point", "coordinates": [ -8.10992, 41.4003 ] } },
{ "type": "Feature", "properties": { "gid": 0, "id": "32", "nome": null, "Toponimo": "Toutaim", "DESIGNACAO": null, "localidade": null, "freguesia": "União das freguesias de Carvalho e Basto (Santa Tecla)", "concelho": "Celorico de Basto", "distrito": "Braga" }, "geometry": { "type": "Point", "coordinates": [ -8.03443, 41.37991 ] } },
{ "type": "Feature", "properties": { "gid": 0, "id": "33", "nome": null, "Toponimo": "Serrinha", "DESIGNACAO": null, "localidade": null, "freguesia": "Basto (S. Clemente)", "concelho": "Celorico de Basto", "distrito": "Braga" }, "geometry": { "type": "Point", "coordinates": [ -8.08594, 41.44298 ] } },
{ "type": "Feature", "properties": { "gid": 0, "id": "34", "nome": null, "Toponimo": "Travessa 1", "DESIGNACAO": null, "localidade": null, "freguesia": "Basto (S. Clemente)", "concelho": "Celorico de Basto", "distrito": "Braga" }, "geometry": { "type": "Point", "coordinates": [ -8.08194, 41.44588 ] } },
{ "type": "Feature", "properties": { "gid": 0, "id": "35", "nome": null, "Toponimo": "Travessa 2", "DESIGNACAO": null, "localidade": null, "freguesia": "Basto (S. Clemente)", "concelho": "Celorico de Basto", "distrito": "Braga" }, "geometry": { "type": "Point", "coordinates": [ -8.08183, 41.44572 ] } },
{ "type": "Feature", "properties": { "gid": 0, "id": "36", "nome": null, "Toponimo": "Travessa 3", "DESIGNACAO": null, "localidade": null, "freguesia": "Basto (S. Clemente)", "concelho": "Celorico de Basto", "distrito": "Braga" }, "geometry": { "type": "Point", "coordinates": [ -8.07977, 41.44517 ] } },
{ "type": "Feature", "properties": { "gid": 0, "id": "37", "nome": null, "Toponimo": "Travessa 4", "DESIGNACAO": null, "localidade": null, "freguesia": "Basto (S. Clemente)", "concelho": "Celorico de Basto", "distrito": "Braga" }, "geometry": { "type": "Point", "coordinates": [ -8.07923, 41.44469 ] } },
{ "type": "Feature", "properties": { "gid": 0, "id": "38", "nome": null, "Toponimo": "Monte das Almas1", "DESIGNACAO": null, "localidade": null, "freguesia": "Basto (S. Clemente)", "concelho": "Celorico de Basto", "distrito": "Braga" }, "geometry": { "type": "Point", "coordinates": [ -8.06782, 41.48049 ] } },
{ "type": "Feature", "properties": { "gid": 0, "id": "39", "nome": null, "Toponimo": "Monte das Almas2", "DESIGNACAO": null, "localidade": null, "freguesia": "Basto (S. Clemente)", "concelho": "Celorico de Basto", "distrito": "Braga" }, "geometry": { "type": "Point", "coordinates": [ -8.06568, 41.48488 ] } },
{ "type": "Feature", "properties": { "gid": 0, "id": "40", "nome": null, "Toponimo": "Bouça de Mosqueiros", "DESIGNACAO": null, "localidade": null, "freguesia": "União das freguesias de Britelo, Gémeos e Ourilhe", "concelho": "Celorico de Basto", "distrito": "Braga" }, "geometry": { "type": "Point", "coordinates": [ -7.97312, 41.38723 ] } },
{ "type": "Feature", "properties": { "gid": 0, "id": "41", "nome": null, "Toponimo": "Foral", "DESIGNACAO": null, "localidade": null, "freguesia": "União das freguesias de Britelo, Gémeos e Ourilhe", "concelho": "Celorico de Basto", "distrito": "Braga" }, "geometry": { "type": "Point", "coordinates": [ -7.98889, 41.39564 ] } },
{ "type": "Feature", "properties": { "gid": 0, "id": "42", "nome": null, "Toponimo": "Fraga", "DESIGNACAO": null, "localidade": null, "freguesia": "União das freguesias de Britelo, Gémeos e Ourilhe", "concelho": "Celorico de Basto", "distrito": "Braga" }, "geometry": { "type": "Point", "coordinates": [ -7.97398, 41.38229 ] } },
{ "type": "Feature", "properties": { "gid": 0, "id": "43", "nome": null, "Toponimo": "Quinta de S. Mamede", "DESIGNACAO": null, "localidade": null, "freguesia": "União das freguesias de Canedo de Basto e Corgo", "concelho": "Celorico de Basto", "distrito": "Braga" }, "geometry": { "type": "Point", "coordinates": [ -7.93866, 41.44444 ] } },
{ "type": "Feature", "properties": { "gid": 0, "id": "44", "nome": null, "Toponimo": "Granja", "DESIGNACAO": null, "localidade": null, "freguesia": "União das freguesias de Canedo de Basto e Corgo", "concelho": "Celorico de Basto", "distrito": "Braga" }, "geometry": { "type": "Point", "coordinates": [ -7.95854, 41.44219 ] } },
{ "type": "Feature", "properties": { "gid": 0, "id": "45", "nome": null, "Toponimo": "Crasto/Alto da Moura", "DESIGNACAO": null, "localidade": null, "freguesia": "União das freguesias de Canedo de Basto e Corgo", "concelho": "Celorico de Basto", "distrito": "Braga" }, "geometry": { "type": "Point", "coordinates": [ -7.94481, 41.43672 ] } },
{ "type": "Feature", "properties": { "gid": 0, "id": "46", "nome": null, "Toponimo": "Calvelo", "DESIGNACAO": null, "localidade": null, "freguesia": "União das freguesias de Carvalho e Basto (Santa Tecla)", "concelho": "Celorico de Basto", "distrito": "Braga" }, "geometry": { "type": "Point", "coordinates": [ -8.0631, 41.37044 ] } },
{ "type": "Feature", "properties": { "gid": 0, "id": "47", "nome": null, "Toponimo": "Pena Grande", "DESIGNACAO": null, "localidade": null, "freguesia": "União das freguesias de Carvalho e Basto (Santa Tecla)", "concelho": "Celorico de Basto", "distrito": "Braga" }, "geometry": { "type": "Point", "coordinates": [ -8.06986, 41.37079 ] } },
{ "type": "Feature", "properties": { "gid": 0, "id": "48", "nome": null, "Toponimo": "Casais", "DESIGNACAO": null, "localidade": null, "freguesia": "União das freguesias de Carvalho e Basto (Santa Tecla)", "concelho": "Celorico de Basto", "distrito": "Braga" }, "geometry": { "type": "Point", "coordinates": [ -8.07545, 41.37744 ] } },
{ "type": "Feature", "properties": { "gid": 0, "id": "49", "nome": null, "Toponimo": "Chã Ferreira/Cemitério", "DESIGNACAO": null, "localidade": null, "freguesia": "União das freguesias de Carvalho e Basto (Santa Tecla)", "concelho": "Celorico de Basto", "distrito": "Braga" }, "geometry": { "type": "Point", "coordinates": [ -8.06323, 41.38642 ] } },
{ "type": "Feature", "properties": { "gid": 0, "id": "50", "nome": null, "Toponimo": "Robalde/Chã das Arcas", "DESIGNACAO": null, "localidade": null, "freguesia": "União das freguesias de Carvalho e Basto (Santa Tecla)", "concelho": "Celorico de Basto", "distrito": "Braga" }, "geometry": { "type": "Point", "coordinates": [ -8.06896, 41.386 ] } },
{ "type": "Feature", "properties": { "gid": 0, "id": "51", "nome": null, "Toponimo": "Carvalho", "DESIGNACAO": null, "localidade": null, "freguesia": "União das freguesias de Carvalho e Basto (Santa Tecla)", "concelho": "Celorico de Basto", "distrito": "Braga" }, "geometry": { "type": "Point", "coordinates": [ -8.07173, 41.38122 ] } },
{ "type": "Feature", "properties": { "gid": 0, "id": "52", "nome": null, "Toponimo": "Outeirões", "DESIGNACAO": null, "localidade": null, "freguesia": "União das freguesias de Carvalho e Basto (Santa Tecla)", "concelho": "Celorico de Basto", "distrito": "Braga" }, "geometry": { "type": "Point", "coordinates": [ -8.07569, 41.38381 ] } },
{ "type": "Feature", "properties": { "gid": 0, "id": "53", "nome": null, "Toponimo": "Monte do Corgo", "DESIGNACAO": null, "localidade": null, "freguesia": "União das freguesias de Canedo de Basto e Corgo", "concelho": "Celorico de Basto", "distrito": "Braga" }, "geometry": { "type": "Point", "coordinates": [ -7.97733, 41.44182 ] } },
{ "type": "Feature", "properties": { "gid": 0, "id": "54", "nome": null, "Toponimo": "Sobreira 1", "DESIGNACAO": null, "localidade": null, "freguesia": "União das freguesias de Canedo de Basto e Corgo", "concelho": "Celorico de Basto", "distrito": "Braga" }, "geometry": { "type": "Point", "coordinates": [ -7.9786, 41.43428 ] } },
{ "type": "Feature", "properties": { "gid": 0, "id": "56", "nome": null, "Toponimo": "Campos 1", "DESIGNACAO": null, "localidade": null, "freguesia": "Fervença", "concelho": "Celorico de Basto", "distrito": "Braga" }, "geometry": { "type": "Point", "coordinates": [ -8.09355, 41.36384 ] } },
{ "type": "Feature", "properties": { "gid": 0, "id": "57", "nome": null, "Toponimo": "Burguinho", "DESIGNACAO": null, "localidade": null, "freguesia": "Fervença", "concelho": "Celorico de Basto", "distrito": "Braga" }, "geometry": { "type": "Point", "coordinates": [ -8.08639, 41.36213 ] } },
{ "type": "Feature", "properties": { "gid": 0, "id": "59", "nome": null, "Toponimo": "Muchões", "DESIGNACAO": null, "localidade": null, "freguesia": "União das freguesias de Veade, Gagos e Molares", "concelho": "Celorico de Basto", "distrito": "Braga" }, "geometry": { "type": "Point", "coordinates": [ -8.00587, 41.43542 ] } },
{ "type": "Feature", "properties": { "gid": 0, "id": "60", "nome": null, "Toponimo": "Freitas", "DESIGNACAO": null, "localidade": null, "freguesia": "União das freguesias de Veade, Gagos e Molares", "concelho": "Celorico de Basto", "distrito": "Braga" }, "geometry": { "type": "Point", "coordinates": [ -8.01305, 41.42742 ] } },
{ "type": "Feature", "properties": { "gid": 0, "id": "62", "nome": null, "Toponimo": "Lage", "DESIGNACAO": null, "localidade": null, "freguesia": "União das freguesias de Britelo, Gémeos e Ourilhe", "concelho": "Celorico de Basto", "distrito": "Braga" }, "geometry": { "type": "Point", "coordinates": [ -8.01534, 41.38798 ] } },
{ "type": "Feature", "properties": { "gid": 0, "id": "63", "nome": null, "Toponimo": "Penedo da Senhora", "DESIGNACAO": null, "localidade": null, "freguesia": "União das freguesias de Caçarilhe e Infesta", "concelho": "Celorico de Basto", "distrito": "Braga" }, "geometry": { "type": "Point", "coordinates": [ -8.05719, 41.39887 ] } },
{ "type": "Feature", "properties": { "gid": 0, "id": "64", "nome": null, "Toponimo": "Lombo", "DESIGNACAO": null, "localidade": null, "freguesia": "União das freguesias de Caçarilhe e Infesta", "concelho": "Celorico de Basto", "distrito": "Braga" }, "geometry": { "type": "Point", "coordinates": [ -8.0452, 41.39979 ] } },
{ "type": "Feature", "properties": { "gid": 0, "id": "65", "nome": null, "Toponimo": "Paredes", "DESIGNACAO": null, "localidade": null, "freguesia": "União das freguesias de Caçarilhe e Infesta", "concelho": "Celorico de Basto", "distrito": "Braga" }, "geometry": { "type": "Point", "coordinates": [ -8.05332, 41.40493 ] } },
{ "type": "Feature", "properties": { "gid": 0, "id": "66", "nome": null, "Toponimo": "Serra da Infesta", "DESIGNACAO": null, "localidade": null, "freguesia": "União das freguesias de Caçarilhe e Infesta", "concelho": "Celorico de Basto", "distrito": "Braga" }, "geometry": { "type": "Point", "coordinates": [ -8.03358, 41.40965 ] } },
{ "type": "Feature", "properties": { "gid": 0, "id": "67", "nome": null, "Toponimo": "Quintela", "DESIGNACAO": null, "localidade": null, "freguesia": "União das freguesias de Veade, Gagos e Molares", "concelho": "Celorico de Basto", "distrito": "Braga" }, "geometry": { "type": "Point", "coordinates": [ -7.99328, 41.41561 ] } },
{ "type": "Feature", "properties": { "gid": 0, "id": "68", "nome": null, "Toponimo": "Corga 1", "DESIGNACAO": null, "localidade": null, "freguesia": "União das freguesias de Britelo, Gémeos e Ourilhe", "concelho": "Celorico de Basto", "distrito": "Braga" }, "geometry": { "type": "Point", "coordinates": [ -8.02151, 41.42212 ] } },
{ "type": "Feature", "properties": { "gid": 0, "id": "69", "nome": null, "Toponimo": "Corga 2", "DESIGNACAO": null, "localidade": null, "freguesia": "União das freguesias de Britelo, Gémeos e Ourilhe", "concelho": "Celorico de Basto", "distrito": "Braga" }, "geometry": { "type": "Point", "coordinates": [ -8.02035, 41.42131 ] } },
{ "type": "Feature", "properties": { "gid": 0, "id": "70", "nome": null, "Toponimo": "Estremadouro", "DESIGNACAO": null, "localidade": null, "freguesia": "União das freguesias de Veade, Gagos e Molares", "concelho": "Celorico de Basto", "distrito": "Braga" }, "geometry": { "type": "Point", "coordinates": [ -8.00112, 41.40716 ] } },
{ "type": "Feature", "properties": { "gid": 0, "id": "71", "nome": null, "Toponimo": "Lugar do Monte", "DESIGNACAO": null, "localidade": null, "freguesia": "União das freguesias de Britelo, Gémeos e Ourilhe", "concelho": "Celorico de Basto", "distrito": "Braga" }, "geometry": { "type": "Point", "coordinates": [ -8.02886, 41.41278 ] } },
{ "type": "Feature", "properties": { "gid": 0, "id": "72", "nome": null, "Toponimo": "Calvelo 4", "DESIGNACAO": null, "localidade": null, "freguesia": "Borba da Montanha", "concelho": "Celorico de Basto", "distrito": "Braga" }, "geometry": { "type": "Point", "coordinates": [ -8.10447, 41.40773 ] } },
{ "type": "Feature", "properties": { "gid": 0, "id": "73", "nome": null, "Toponimo": "Calvelo 5", "DESIGNACAO": null, "localidade": null, "freguesia": "Borba da Montanha", "concelho": "Celorico de Basto", "distrito": "Braga" }, "geometry": { "type": "Point", "coordinates": [ -8.10394, 41.40792 ] } },
{ "type": "Feature", "properties": { "gid": 0, "id": "74", "nome": null, "Toponimo": "Calvelo 6", "DESIGNACAO": null, "localidade": null, "freguesia": "Borba da Montanha", "concelho": "Celorico de Basto", "distrito": "Braga" }, "geometry": { "type": "Point", "coordinates": [ -8.10391, 41.40816 ] } },
{ "type": "Feature", "properties": { "gid": 0, "id": "75", "nome": null, "Toponimo": "Quintela 3", "DESIGNACAO": null, "localidade": null, "freguesia": "Rego", "concelho": "Celorico de Basto", "distrito": "Braga" }, "geometry": { "type": "Point", "coordinates": [ -8.10301, 41.42133 ] } },
{ "type": "Feature", "properties": { "gid": 0, "id": "76", "nome": null, "Toponimo": "Quintela 5", "DESIGNACAO": null, "localidade": null, "freguesia": "Rego", "concelho": "Celorico de Basto", "distrito": "Braga" }, "geometry": { "type": "Point", "coordinates": [ -8.10145, 41.42378 ] } },
{ "type": "Feature", "properties": { "gid": 0, "id": "77", "nome": null, "Toponimo": "Quintela 6", "DESIGNACAO": null, "localidade": null, "freguesia": "Rego", "concelho": "Celorico de Basto", "distrito": "Braga" }, "geometry": { "type": "Point", "coordinates": [ -8.09729, 41.42421 ] } },
{ "type": "Feature", "properties": { "gid": 0, "id": "78", "nome": null, "Toponimo": "Lameiro Longo", "DESIGNACAO": null, "localidade": null, "freguesia": "Rego", "concelho": "Celorico de Basto", "distrito": "Braga" }, "geometry": { "type": "Point", "coordinates": [ -8.09766, 41.432 ] } },
{ "type": "Feature", "properties": { "gid": 0, "id": "79", "nome": null, "Toponimo": "Lameiros Velhos", "DESIGNACAO": null, "localidade": null, "freguesia": "Rego", "concelho": "Celorico de Basto", "distrito": "Braga" }, "geometry": { "type": "Point", "coordinates": [ -8.1001, 41.43609 ] } },
{ "type": "Feature", "properties": { "gid": 0, "id": "80", "nome": null, "Toponimo": "Lameira", "DESIGNACAO": null, "localidade": null, "freguesia": "Rego", "concelho": "Celorico de Basto", "distrito": "Braga" }, "geometry": { "type": "Point", "coordinates": [ -8.08172, 41.44249 ] } },
{ "type": "Feature", "properties": { "gid": 0, "id": "81", "nome": null, "Toponimo": "Tapada da Venda/Pedroso", "DESIGNACAO": null, "localidade": null, "freguesia": "Rego", "concelho": "Celorico de Basto", "distrito": "Braga" }, "geometry": { "type": "Point", "coordinates": [ -8.07885, 41.43834 ] } },
{ "type": "Feature", "properties": { "gid": 0, "id": "82", "nome": null, "Toponimo": "Alto dos Eirais 1", "DESIGNACAO": null, "localidade": null, "freguesia": "Rego", "concelho": "Celorico de Basto", "distrito": "Braga" }, "geometry": { "type": "Point", "coordinates": [ -8.0726, 41.43615 ] } },
{ "type": "Feature", "properties": { "gid": 0, "id": "83", "nome": null, "Toponimo": "Arbonça", "DESIGNACAO": null, "localidade": null, "freguesia": "Rego", "concelho": "Celorico de Basto", "distrito": "Braga" }, "geometry": { "type": "Point", "coordinates": [ -8.0713, 41.43933 ] } },
{ "type": "Feature", "properties": { "gid": 0, "id": "84", "nome": null, "Toponimo": "Areeiro 1", "DESIGNACAO": null, "localidade": null, "freguesia": "Ribas", "concelho": "Celorico de Basto", "distrito": "Braga" }, "geometry": { "type": "Point", "coordinates": [ -8.06189, 41.44374 ] } },
{ "type": "Feature", "properties": { "gid": 0, "id": "85", "nome": null, "Toponimo": "Lobão", "DESIGNACAO": null, "localidade": null, "freguesia": "Rego", "concelho": "Celorico de Basto", "distrito": "Braga" }, "geometry": { "type": "Point", "coordinates": [ -8.0667, 41.43082 ] } },
{ "type": "Feature", "properties": { "gid": 0, "id": "86", "nome": null, "Toponimo": "Alijó 1", "DESIGNACAO": null, "localidade": null, "freguesia": "Rego", "concelho": "Celorico de Basto", "distrito": "Braga" }, "geometry": { "type": "Point", "coordinates": [ -8.08078, 41.42458 ] } },
{ "type": "Feature", "properties": { "gid": 0, "id": "87", "nome": null, "Toponimo": "Alijó 2", "DESIGNACAO": null, "localidade": null, "freguesia": "Rego", "concelho": "Celorico de Basto", "distrito": "Braga" }, "geometry": { "type": "Point", "coordinates": [ -8.08108, 41.42386 ] } },
{ "type": "Feature", "properties": { "gid": 0, "id": "88", "nome": null, "Toponimo": "Outeiro Longo", "DESIGNACAO": null, "localidade": null, "freguesia": "Rego", "concelho": "Celorico de Basto", "distrito": "Braga" }, "geometry": { "type": "Point", "coordinates": [ -8.06864, 41.41785 ] } },
{ "type": "Feature", "properties": { "gid": 0, "id": "89", "nome": null, "Toponimo": "Viso 1", "DESIGNACAO": null, "localidade": null, "freguesia": "Rego", "concelho": "Celorico de Basto", "distrito": "Braga" }, "geometry": { "type": "Point", "coordinates": [ -8.06133, 41.41804 ] } },
{ "type": "Feature", "properties": { "gid": 0, "id": "90", "nome": null, "Toponimo": "Viso 2", "DESIGNACAO": null, "localidade": null, "freguesia": "União das freguesias de Caçarilhe e Infesta", "concelho": "Celorico de Basto", "distrito": "Braga" }, "geometry": { "type": "Point", "coordinates": [ -8.0612, 41.41734 ] } },
{ "type": "Feature", "properties": { "gid": 0, "id": "91", "nome": null, "Toponimo": "Viso 3", "DESIGNACAO": null, "localidade": null, "freguesia": "União das freguesias de Caçarilhe e Infesta", "concelho": "Celorico de Basto", "distrito": "Braga" }, "geometry": { "type": "Point", "coordinates": [ -8.06095, 41.41619 ] } },
{ "type": "Feature", "properties": { "gid": 0, "id": "92", "nome": null, "Toponimo": "Viso 4", "DESIGNACAO": null, "localidade": null, "freguesia": "União das freguesias de Caçarilhe e Infesta", "concelho": "Celorico de Basto", "distrito": "Braga" }, "geometry": { "type": "Point", "coordinates": [ -8.06148, 41.41664 ] } },
{ "type": "Feature", "properties": { "gid": 0, "id": "93", "nome": null, "Toponimo": "Lamas 1", "DESIGNACAO": null, "localidade": null, "freguesia": "Rego", "concelho": "Celorico de Basto", "distrito": "Braga" }, "geometry": { "type": "Point", "coordinates": [ -8.10259, 41.40964 ] } },
{ "type": "Feature", "properties": { "gid": 0, "id": "94", "nome": null, "Toponimo": "Lamas 2", "DESIGNACAO": null, "localidade": null, "freguesia": "Rego", "concelho": "Celorico de Basto", "distrito": "Braga" }, "geometry": { "type": "Point", "coordinates": [ -8.10249, 41.41004 ] } },
{ "type": "Feature", "properties": { "gid": 0, "id": "95", "nome": null, "Toponimo": "Lamas 3", "DESIGNACAO": null, "localidade": null, "freguesia": "Rego", "concelho": "Celorico de Basto", "distrito": "Braga" }, "geometry": { "type": "Point", "coordinates": [ -8.10058, 41.41177 ] } },
{ "type": "Feature", "properties": { "gid": 0, "id": "96", "nome": null, "Toponimo": "Lamas 4", "DESIGNACAO": null, "localidade": null, "freguesia": "Rego", "concelho": "Celorico de Basto", "distrito": "Braga" }, "geometry": { "type": "Point", "coordinates": [ -8.09783, 41.41132 ] } },
{ "type": "Feature", "properties": { "gid": 0, "id": "97", "nome": null, "Toponimo": "Lamas 6", "DESIGNACAO": null, "localidade": null, "freguesia": "Rego", "concelho": "Celorico de Basto", "distrito": "Braga" }, "geometry": { "type": "Point", "coordinates": [ -8.09542, 41.41229 ] } },
{ "type": "Feature", "properties": { "gid": 0, "id": "98", "nome": null, "Toponimo": "Bolada 1", "DESIGNACAO": null, "localidade": null, "freguesia": "Rego", "concelho": "Celorico de Basto", "distrito": "Braga" }, "geometry": { "type": "Point", "coordinates": [ -8.09205, 41.41365 ] } },
{ "type": "Feature", "properties": { "gid": 0, "id": "99", "nome": null, "Toponimo": "Bolada 2", "DESIGNACAO": null, "localidade": null, "freguesia": "Rego", "concelho": "Celorico de Basto", "distrito": "Braga" }, "geometry": { "type": "Point", "coordinates": [ -8.09158, 41.41406 ] } },
{ "type": "Feature", "properties": { "gid": 0, "id": "100", "nome": null, "Toponimo": "Ladeira", "DESIGNACAO": null, "localidade": null, "freguesia": "Rego", "concelho": "Celorico de Basto", "distrito": "Braga" }, "geometry": { "type": "Point", "coordinates": [ -8.10007, 41.41543 ] } },
{ "type": "Feature", "properties": { "gid": 0, "id": "101", "nome": null, "Toponimo": "Quintela 1", "DESIGNACAO": null, "localidade": null, "freguesia": "Rego", "concelho": "Celorico de Basto", "distrito": "Braga" }, "geometry": { "type": "Point", "coordinates": [ -8.10238, 41.41782 ] } },
{ "type": "Feature", "properties": { "gid": 0, "id": "102", "nome": null, "Toponimo": "Quintela 2", "DESIGNACAO": null, "localidade": null, "freguesia": "Rego", "concelho": "Celorico de Basto", "distrito": "Braga" }, "geometry": { "type": "Point", "coordinates": [ -8.10299, 41.42122 ] } },
{ "type": "Feature", "properties": { "gid": 0, "id": "103", "nome": null, "Toponimo": "Modernas", "DESIGNACAO": null, "localidade": null, "freguesia": "Rego", "concelho": "Celorico de Basto", "distrito": "Braga" }, "geometry": { "type": "Point", "coordinates": [ -8.08045, 41.41512 ] } },
{ "type": "Feature", "properties": { "gid": 0, "id": "104", "nome": null, "Toponimo": "Arcabouço 1", "DESIGNACAO": null, "localidade": null, "freguesia": "Rego", "concelho": "Celorico de Basto", "distrito": "Braga" }, "geometry": { "type": "Point", "coordinates": [ -8.08609, 41.41408 ] } },
{ "type": "Feature", "properties": { "gid": 0, "id": "105", "nome": null, "Toponimo": "Arcabouço 2", "DESIGNACAO": null, "localidade": null, "freguesia": "Rego", "concelho": "Celorico de Basto", "distrito": "Braga" }, "geometry": { "type": "Point", "coordinates": [ -8.08573, 41.41424 ] } },
{ "type": "Feature", "properties": { "gid": 0, "id": "106", "nome": null, "Toponimo": "Penicia 1", "DESIGNACAO": null, "localidade": null, "freguesia": "Rego", "concelho": "Celorico de Basto", "distrito": "Braga" }, "geometry": { "type": "Point", "coordinates": [ -8.07259, 41.40086 ] } },
{ "type": "Feature", "properties": { "gid": 0, "id": "107", "nome": null, "Toponimo": "Penicia 2", "DESIGNACAO": null, "localidade": null, "freguesia": "Rego", "concelho": "Celorico de Basto", "distrito": "Braga" }, "geometry": { "type": "Point", "coordinates": [ -8.06873, 41.40186 ] } },
{ "type": "Feature", "properties": { "gid": 0, "id": "108", "nome": null, "Toponimo": "Penicia 3", "DESIGNACAO": null, "localidade": null, "freguesia": "Rego", "concelho": "Celorico de Basto", "distrito": "Braga" }, "geometry": { "type": "Point", "coordinates": [ -8.06798, 41.40087 ] } },
{ "type": "Feature", "properties": { "gid": 0, "id": "109", "nome": null, "Toponimo": "Penicia 4", "DESIGNACAO": null, "localidade": null, "freguesia": "Rego", "concelho": "Celorico de Basto", "distrito": "Braga" }, "geometry": { "type": "Point", "coordinates": [ -8.06748, 41.40054 ] } },
{ "type": "Feature", "properties": { "gid": 0, "id": "110", "nome": null, "Toponimo": "Olas 1", "DESIGNACAO": null, "localidade": null, "freguesia": "Rego", "concelho": "Celorico de Basto", "distrito": "Braga" }, "geometry": { "type": "Point", "coordinates": [ -8.06555, 41.39871 ] } },
{ "type": "Feature", "properties": { "gid": 0, "id": "111", "nome": null, "Toponimo": "Arcabouço 3", "DESIGNACAO": null, "localidade": null, "freguesia": "Rego", "concelho": "Celorico de Basto", "distrito": "Braga" }, "geometry": { "type": "Point", "coordinates": [ -8.08543, 41.41323 ] } },
{ "type": "Feature", "properties": { "gid": 0, "id": "112", "nome": null, "Toponimo": "Arcabouço 5", "DESIGNACAO": null, "localidade": null, "freguesia": "Rego", "concelho": "Celorico de Basto", "distrito": "Braga" }, "geometry": { "type": "Point", "coordinates": [ -8.07952, 41.4136 ] } },
{ "type": "Feature", "properties": { "gid": 0, "id": "113", "nome": null, "Toponimo": "Caravides", "DESIGNACAO": null, "localidade": null, "freguesia": "Rego", "concelho": "Celorico de Basto", "distrito": "Braga" }, "geometry": { "type": "Point", "coordinates": [ -8.06877, 41.4298 ] } },
{ "type": "Feature", "properties": { "gid": 0, "id": "114", "nome": null, "Toponimo": "Devesa Alta", "DESIGNACAO": null, "localidade": null, "freguesia": "Rego", "concelho": "Celorico de Basto", "distrito": "Braga" }, "geometry": { "type": "Point", "coordinates": [ -8.07711, 41.44 ] } },
{ "type": "Feature", "properties": { "gid": 0, "id": "115", "nome": null, "Toponimo": "Campinho", "DESIGNACAO": null, "localidade": null, "freguesia": "Rego", "concelho": "Celorico de Basto", "distrito": "Braga" }, "geometry": { "type": "Point", "coordinates": [ -8.09361, 41.43994 ] } },
{ "type": "Feature", "properties": { "gid": 0, "id": "116", "nome": null, "Toponimo": "Vale de Lobos", "DESIGNACAO": null, "localidade": null, "freguesia": "Ribas", "concelho": "Celorico de Basto", "distrito": "Braga" }, "geometry": { "type": "Point", "coordinates": [ -8.05604, 41.44244 ] } },
{ "type": "Feature", "properties": { "gid": 0, "id": "117", "nome": null, "Toponimo": "Pioledo", "DESIGNACAO": null, "localidade": null, "freguesia": "Ribas", "concelho": "Celorico de Basto", "distrito": "Braga" }, "geometry": { "type": "Point", "coordinates": [ -8.0479, 41.44493 ] } },
{ "type": "Feature", "properties": { "gid": 0, "id": "118", "nome": null, "Toponimo": "Chã das Matas", "DESIGNACAO": null, "localidade": null, "freguesia": "Ribas", "concelho": "Celorico de Basto", "distrito": "Braga" }, "geometry": { "type": "Point", "coordinates": [ -8.04223, 41.45117 ] } },
{ "type": "Feature", "properties": { "gid": 0, "id": "121", "nome": null, "Toponimo": "Lugar de Além", "DESIGNACAO": null, "localidade": null, "freguesia": "União das freguesias de Canedo de Basto e Corgo", "concelho": "Celorico de Basto", "distrito": "Braga" }, "geometry": { "type": "Point", "coordinates": [ -7.96668, 41.42451 ] } },
{ "type": "Feature", "properties": { "gid": 0, "id": "122", "nome": null, "Toponimo": "St.ª Cristina", "DESIGNACAO": null, "localidade": null, "freguesia": "União das freguesias de Veade, Gagos e Molares", "concelho": "Celorico de Basto", "distrito": "Braga" }, "geometry": { "type": "Point", "coordinates": [ -8.00691, 41.40729 ] } },
{ "type": "Feature", "properties": { "gid": 0, "id": "123", "nome": null, "Toponimo": "Lagoeira", "DESIGNACAO": null, "localidade": null, "freguesia": "Vale de Bouro", "concelho": "Celorico de Basto", "distrito": "Braga" }, "geometry": { "type": "Point", "coordinates": [ -8.03054, 41.43006 ] } },
{ "type": "Feature", "properties": { "gid": 0, "id": "124", "nome": null, "Toponimo": "Pedreira", "DESIGNACAO": null, "localidade": null, "freguesia": "Vale de Bouro", "concelho": "Celorico de Basto", "distrito": "Braga" }, "geometry": { "type": "Point", "coordinates": [ -7.99826, 41.45208 ] } },
{ "type": "Feature", "properties": { "gid": 0, "id": "125", "nome": null, "Toponimo": "Soutelo", "DESIGNACAO": null, "localidade": null, "freguesia": "União das freguesias de Veade, Gagos e Molares", "concelho": "Celorico de Basto", "distrito": "Braga" }, "geometry": { "type": "Point", "coordinates": [ -8.00456, 41.41304 ] } },
{ "type": "Feature", "properties": { "gid": 0, "id": "127", "nome": null, "Toponimo": "Ladário", "DESIGNACAO": null, "localidade": null, "freguesia": "Vale de Bouro", "concelho": "Celorico de Basto", "distrito": "Braga" }, "geometry": { "type": "Point", "coordinates": [ -7.99149, 41.46293 ] } },
{ "type": "Feature", "properties": { "gid": 0, "id": "127", "nome": null, "Toponimo": "Cabanelas", "DESIGNACAO": null, "localidade": null, "freguesia": "União das freguesias de Caçarilhe e Infesta", "concelho": "Celorico de Basto", "distrito": "Braga" }, "geometry": { "type": "Point", "coordinates": [ -8.0335, 41.41749 ] } },
{ "type": "Feature", "properties": { "gid": 0, "id": "128", "nome": null, "Toponimo": "Alto do Vale de Abade 1", "DESIGNACAO": null, "localidade": null, "freguesia": "Basto (S. Clemente)", "concelho": "Celorico de Basto", "distrito": "Braga" }, "geometry": { "type": "Point", "coordinates": [ -8.06303, 41.45576 ] } },
{ "type": "Feature", "properties": { "gid": 0, "id": "129", "nome": null, "Toponimo": "Alto do Vale de Abade 2", "DESIGNACAO": null, "localidade": null, "freguesia": "Basto (S. Clemente)", "concelho": "Celorico de Basto", "distrito": "Braga" }, "geometry": { "type": "Point", "coordinates": [ -8.06211, 41.45608 ] } },
{ "type": "Feature", "properties": { "gid": 0, "id": "130", "nome": null, "Toponimo": "Penedo da Penalva", "DESIGNACAO": null, "localidade": null, "freguesia": "Basto (S. Clemente)", "concelho": "Celorico de Basto", "distrito": "Braga" }, "geometry": { "type": "Point", "coordinates": [ -8.06733, 41.46438 ] } },
{ "type": "Feature", "properties": { "gid": 0, "id": "131", "nome": null, "Toponimo": "Bouças", "DESIGNACAO": null, "localidade": null, "freguesia": "Agilde", "concelho": "Celorico de Basto", "distrito": "Braga" }, "geometry": { "type": "Point", "coordinates": [ -8.1069, 41.37163 ] } },
{ "type": "Feature", "properties": { "gid": 0, "id": "132", "nome": null, "Toponimo": "Quintela1", "DESIGNACAO": null, "localidade": null, "freguesia": "Basto (S. Clemente)", "concelho": "Celorico de Basto", "distrito": "Braga" }, "geometry": { "type": "Point", "coordinates": [ -8.00835, 41.46935 ] } },
{ "type": "Feature", "properties": { "gid": 0, "id": "133", "nome": null, "Toponimo": "Quintela3", "DESIGNACAO": null, "localidade": null, "freguesia": "Basto (S. Clemente)", "concelho": "Celorico de Basto", "distrito": "Braga" }, "geometry": { "type": "Point", "coordinates": [ -8.01054, 41.47183 ] } },
{ "type": "Feature", "properties": { "gid": 0, "id": "134", "nome": null, "Toponimo": "Quintela4", "DESIGNACAO": null, "localidade": null, "freguesia": "Basto (S. Clemente)", "concelho": "Celorico de Basto", "distrito": "Braga" }, "geometry": { "type": "Point", "coordinates": [ -8.00721, 41.46916 ] } },
{ "type": "Feature", "properties": { "gid": 0, "id": "135", "nome": null, "Toponimo": "Calvelo 3", "DESIGNACAO": null, "localidade": null, "freguesia": "Borba da Montanha", "concelho": "Celorico de Basto", "distrito": "Braga" }, "geometry": { "type": "Point", "coordinates": [ -8.10366, 41.40653 ] } },
{ "type": "Feature", "properties": { "gid": 0, "id": "136", "nome": null, "Toponimo": "Crasto", "DESIGNACAO": null, "localidade": null, "freguesia": "União das freguesias de Britelo, Gémeos e Ourilhe", "concelho": "Celorico de Basto", "distrito": "Braga" }, "geometry": { "type": "Point", "coordinates": [ -8.01647, 41.40393 ] } },
{ "type": "Feature", "properties": { "gid": 0, "id": "137", "nome": null, "Toponimo": "Cortes", "DESIGNACAO": null, "localidade": null, "freguesia": "União das freguesias de Britelo, Gémeos e Ourilhe", "concelho": "Celorico de Basto", "distrito": "Braga" }, "geometry": { "type": "Point", "coordinates": [ -8.01359, 41.4166 ] } },
{ "type": "Feature", "properties": { "gid": 0, "id": "138", "nome": null, "Toponimo": "Arcabouço 4a", "DESIGNACAO": null, "localidade": null, "freguesia": "Rego", "concelho": "Celorico de Basto", "distrito": "Braga" }, "geometry": { "type": "Point", "coordinates": [ -8.08464, 41.41431 ] } },
{ "type": "Feature", "properties": { "gid": 0, "id": "139", "nome": null, "Toponimo": "Arcabouço 4b", "DESIGNACAO": null, "localidade": null, "freguesia": "Rego", "concelho": "Celorico de Basto", "distrito": "Braga" }, "geometry": { "type": "Point", "coordinates": [ -8.08364, 41.41355 ] } },
{ "type": "Feature", "properties": { "gid": 0, "id": "140", "nome": null, "Toponimo": "Areeiro 2", "DESIGNACAO": null, "localidade": null, "freguesia": "Rego", "concelho": "Celorico de Basto", "distrito": "Braga" }, "geometry": { "type": "Point", "coordinates": [ -8.07362, 41.40867 ] } },
{ "type": "Feature", "properties": { "gid": 0, "id": "141", "nome": null, "Toponimo": "Calvário 1", "DESIGNACAO": null, "localidade": null, "freguesia": "Rego", "concelho": "Celorico de Basto", "distrito": "Braga" }, "geometry": { "type": "Point", "coordinates": [ -8.08641, 41.41766 ] } },
{ "type": "Feature", "properties": { "gid": 0, "id": "142", "nome": null, "Toponimo": "Calvário 2", "DESIGNACAO": null, "localidade": null, "freguesia": "Rego", "concelho": "Celorico de Basto", "distrito": "Braga" }, "geometry": { "type": "Point", "coordinates": [ -8.08412, 41.41799 ] } },
{ "type": "Feature", "properties": { "gid": 0, "id": "143", "nome": null, "Toponimo": "Arcabouço6", "DESIGNACAO": null, "localidade": null, "freguesia": "Rego", "concelho": "Celorico de Basto", "distrito": "Braga" }, "geometry": { "type": "Point", "coordinates": [ -8.07769, 41.41184 ] } },
{ "type": "Feature", "properties": { "gid": 0, "id": "144", "nome": null, "Toponimo": "Alto dos Eirais 2", "DESIGNACAO": null, "localidade": null, "freguesia": "Rego", "concelho": "Celorico de Basto", "distrito": "Braga" }, "geometry": { "type": "Point", "coordinates": [ -8.07297, 41.43579 ] } },
{ "type": "Feature", "properties": { "gid": 0, "id": "145", "nome": null, "Toponimo": "Foles", "DESIGNACAO": null, "localidade": null, "freguesia": "Rego", "concelho": "Celorico de Basto", "distrito": "Braga" }, "geometry": { "type": "Point", "coordinates": [ -8.09553, 41.44169 ] } },
{ "type": "Feature", "properties": { "gid": 0, "id": "146", "nome": null, "Toponimo": "Serra Branca", "DESIGNACAO": null, "localidade": null, "freguesia": "Fervença", "concelho": "Celorico de Basto", "distrito": "Braga" }, "geometry": { "type": "Point", "coordinates": [ -8.11014, 41.34299 ] } },
{ "type": "Feature", "properties": { "gid": 0, "id": "147", "nome": null, "Toponimo": "Cavada", "DESIGNACAO": null, "localidade": null, "freguesia": "Borba da Montanha", "concelho": "Celorico de Basto", "distrito": "Braga" }, "geometry": { "type": "Point", "coordinates": [ -8.07447, 41.3996 ] } },
{ "type": "Feature", "properties": { "gid": 0, "id": "148", "nome": null, "Toponimo": "Giestal 2", "DESIGNACAO": null, "localidade": null, "freguesia": "Basto (S. Clemente)", "concelho": "Celorico de Basto", "distrito": "Braga" }, "geometry": { "type": "Point", "coordinates": [ -8.06713, 41.45498 ] } },
{ "type": "Feature", "properties": { "gid": 0, "id": "149", "nome": null, "Toponimo": "Igreja", "DESIGNACAO": null, "localidade": null, "freguesia": "União das freguesias de Caçarilhe e Infesta", "concelho": "Celorico de Basto", "distrito": "Braga" }, "geometry": { "type": "Point", "coordinates": [ -8.04284, 41.42394 ] } },
{ "type": "Feature", "properties": { "gid": 0, "id": "150", "nome": null, "Toponimo": "Campos 2", "DESIGNACAO": null, "localidade": null, "freguesia": "Fervença", "concelho": "Celorico de Basto", "distrito": "Braga" }, "geometry": { "type": "Point", "coordinates": [ -8.0907, 41.36479 ] } },
{ "type": "Feature", "properties": { "gid": 0, "id": "151", "nome": null, "Toponimo": "Quintela 2", "DESIGNACAO": null, "localidade": null, "freguesia": "Basto (S. Clemente)", "concelho": "Celorico de Basto", "distrito": "Braga" }, "geometry": { "type": "Point", "coordinates": [ -8.00898, 41.46934 ] } },
{ "type": "Feature", "properties": { "gid": 0, "id": "152", "nome": null, "Toponimo": "Olas 2", "DESIGNACAO": null, "localidade": null, "freguesia": "Rego", "concelho": "Celorico de Basto", "distrito": "Braga" }, "geometry": { "type": "Point", "coordinates": [ -8.06645, 41.39738 ] } },
{ "type": "Feature", "properties": { "gid": 0, "id": "154", "nome": null, "Toponimo": "Campo da Cruz 1", "DESIGNACAO": null, "localidade": null, "freguesia": "União das freguesias de Carvalho e Basto (Santa Tecla)", "concelho": "Celorico de Basto", "distrito": "Braga" }, "geometry": { "type": "Point", "coordinates": [ -8.06196, 41.3822 ] } },
{ "type": "Feature", "properties": { "gid": 0, "id": "155", "nome": null, "Toponimo": "Lamas 5", "DESIGNACAO": null, "localidade": null, "freguesia": "Rego", "concelho": "Celorico de Basto", "distrito": "Braga" }, "geometry": { "type": "Point", "coordinates": [ -8.09567, 41.40956 ] } },
{ "type": "Feature", "properties": { "gid": 0, "id": "156", "nome": null, "Toponimo": "Rochinha", "DESIGNACAO": null, "localidade": null, "freguesia": "Rego", "concelho": "Celorico de Basto", "distrito": "Braga" }, "geometry": { "type": "Point", "coordinates": [ -8.08471, 41.41398 ] } },
{ "type": "Feature", "properties": { "gid": 0, "id": "158", "nome": null, "Toponimo": "Tapada", "DESIGNACAO": null, "localidade": null, "freguesia": "Basto (S. Clemente)", "concelho": "Celorico de Basto", "distrito": "Braga" }, "geometry": { "type": "Point", "coordinates": [ -8.07597, 41.45483 ] } },
{ "type": "Feature", "properties": { "gid": 0, "id": "159", "nome": null, "Toponimo": "Lamas", "DESIGNACAO": null, "localidade": null, "freguesia": "Basto (S. Clemente)", "concelho": "Celorico de Basto", "distrito": "Braga" }, "geometry": { "type": "Point", "coordinates": [ -8.02226, 41.4625 ] } },
{ "type": "Feature", "properties": { "gid": 0, "id": "160", "nome": null, "Toponimo": "Castelo", "DESIGNACAO": null, "localidade": null, "freguesia": "Basto (S. Clemente)", "concelho": "Celorico de Basto", "distrito": "Braga" }, "geometry": { "type": "Point", "coordinates": [ -8.06007, 41.45792 ] } },
{ "type": "Feature", "properties": { "gid": 0, "id": "161", "nome": null, "Toponimo": "Cabo", "DESIGNACAO": null, "localidade": null, "freguesia": "União das freguesias de Carvalho e Basto (Santa Tecla)", "concelho": "Celorico de Basto", "distrito": "Braga" }, "geometry": { "type": "Point", "coordinates": [ -8.05811, 41.38196 ] } },
{ "type": "Feature", "properties": { "gid": 0, "id": "162", "nome": null, "Toponimo": "Quinta do Paço", "DESIGNACAO": null, "localidade": null, "freguesia": "União das freguesias de Carvalho e Basto (Santa Tecla)", "concelho": "Celorico de Basto", "distrito": "Braga" }, "geometry": { "type": "Point", "coordinates": [ -8.05169, 41.38169 ] } },
{ "type": "Feature", "properties": { "gid": 0, "id": "163", "nome": null, "Toponimo": "Funduães", "DESIGNACAO": null, "localidade": null, "freguesia": "Fervença", "concelho": "Celorico de Basto", "distrito": "Braga" }, "geometry": { "type": "Point", "coordinates": [ -8.10359, 41.35722 ] } },
{ "type": "Feature", "properties": { "gid": 0, "id": "164", "nome": null, "Toponimo": "Outeiro Mendo/Quelha da Boavista", "DESIGNACAO": null, "localidade": null, "freguesia": "União das freguesias de Carvalho e Basto (Santa Tecla)", "concelho": "Celorico de Basto", "distrito": "Braga" }, "geometry": { "type": "Point", "coordinates": [ -8.06052, 41.3842 ] } },
{ "type": "Feature", "properties": { "gid": 0, "id": "165", "nome": null, "Toponimo": "Prelada", "DESIGNACAO": null, "localidade": null, "freguesia": "Fervença", "concelho": "Celorico de Basto", "distrito": "Braga" }, "geometry": { "type": "Point", "coordinates": [ -8.08184, 41.3571 ] } },
{ "type": "Feature", "properties": { "gid": 0, "id": "166", "nome": null, "Toponimo": "Portela", "DESIGNACAO": null, "localidade": null, "freguesia": "Fervença", "concelho": "Celorico de Basto", "distrito": "Braga" }, "geometry": { "type": "Point", "coordinates": [ -8.09251, 41.34623 ] } },
{ "type": "Feature", "properties": { "gid": 0, "id": "167", "nome": null, "Toponimo": "Dafões", "DESIGNACAO": null, "localidade": null, "freguesia": "Fervença", "concelho": "Celorico de Basto", "distrito": "Braga" }, "geometry": { "type": "Point", "coordinates": [ -8.0985, 41.34379 ] } },
{ "type": "Feature", "properties": { "gid": 0, "id": "168", "nome": null, "Toponimo": "Quintela 4", "DESIGNACAO": null, "localidade": null, "freguesia": "Rego", "concelho": "Celorico de Basto", "distrito": "Braga" }, "geometry": { "type": "Point", "coordinates": [ -8.10423, 41.4215 ] } },
{ "type": "Feature", "properties": { "gid": 0, "id": "169", "nome": null, "Toponimo": "Pisão", "DESIGNACAO": null, "localidade": null, "freguesia": "Fervença", "concelho": "Celorico de Basto", "distrito": "Braga" }, "geometry": { "type": "Point", "coordinates": [ -8.10217, 41.35238 ] } },
{ "type": "Feature", "properties": { "gid": 0, "id": "170", "nome": null, "Toponimo": "Calçada do Vaqueiro", "DESIGNACAO": null, "localidade": null, "freguesia": "Rego", "concelho": "Celorico de Basto", "distrito": "Braga" }, "geometry": { "type": "Point", "coordinates": [ -8.07315, 41.44055 ] } },
{ "type": "Feature", "properties": { "gid": 0, "id": "172", "nome": null, "Toponimo": "Costa", "DESIGNACAO": null, "localidade": null, "freguesia": "Agilde", "concelho": "Celorico de Basto", "distrito": "Braga" }, "geometry": { "type": "Point", "coordinates": [ -8.11922, 41.3649 ] } },
{ "type": "Feature", "properties": { "gid": 0, "id": "173", "nome": null, "Toponimo": "Vilar", "DESIGNACAO": null, "localidade": null, "freguesia": "União das freguesias de Britelo, Gémeos e Ourilhe", "concelho": "Celorico de Basto", "distrito": "Braga" }, "geometry": { "type": "Point", "coordinates": [ -8.01389, 41.39699 ] } },
{ "type": "Feature", "properties": { "gid": 0, "id": "174", "nome": null, "Toponimo": "Boques", "DESIGNACAO": null, "localidade": null, "freguesia": "União das freguesias de Britelo, Gémeos e Ourilhe", "concelho": "Celorico de Basto", "distrito": "Braga" }, "geometry": { "type": "Point", "coordinates": [ -8.01231, 41.40136 ] } },
{ "type": "Feature", "properties": { "gid": 0, "id": "175", "nome": null, "Toponimo": "Covas", "DESIGNACAO": null, "localidade": null, "freguesia": "União das freguesias de Carvalho e Basto (Santa Tecla)", "concelho": "Celorico de Basto", "distrito": "Braga" }, "geometry": { "type": "Point", "coordinates": [ -8.04701, 41.37593 ] } },
{ "type": "Feature", "properties": { "gid": 0, "id": "176", "nome": null, "Toponimo": "Campo da Cruz 2", "DESIGNACAO": null, "localidade": null, "freguesia": "União das freguesias de Carvalho e Basto (Santa Tecla)", "concelho": "Celorico de Basto", "distrito": "Braga" }, "geometry": { "type": "Point", "coordinates": [ -8.06196, 41.38191 ] } },
{ "type": "Feature", "properties": { "gid": 0, "id": "177", "nome": null, "Toponimo": "Corujeira", "DESIGNACAO": null, "localidade": null, "freguesia": "União das freguesias de Caçarilhe e Infesta", "concelho": "Celorico de Basto", "distrito": "Braga" }, "geometry": { "type": "Point", "coordinates": [ -8.04537, 41.39571 ] } },
{ "type": "Feature", "properties": { "gid": 0, "id": "179", "nome": null, "Toponimo": "Pereira 2", "DESIGNACAO": null, "localidade": null, "freguesia": "Basto (S. Clemente)", "concelho": "Celorico de Basto", "distrito": "Braga" }, "geometry": { "type": "Point", "coordinates": [ -8.05841, 41.47933 ] } },
{ "type": "Feature", "properties": { "gid": 0, "id": "180", "nome": null, "Toponimo": "Gandarela", "DESIGNACAO": null, "localidade": null, "freguesia": "Basto (S. Clemente)", "concelho": "Celorico de Basto", "distrito": "Braga" }, "geometry": { "type": "Point", "coordinates": [ -8.03076, 41.45723 ] } },
{ "type": "Feature", "properties": { "gid": 0, "id": "181", "nome": null, "Toponimo": "Campos de Pereira", "DESIGNACAO": null, "localidade": null, "freguesia": "Basto (S. Clemente)", "concelho": "Celorico de Basto", "distrito": "Braga" }, "geometry": { "type": "Point", "coordinates": [ -8.06325, 41.47597 ] } },
{ "type": "Feature", "properties": { "gid": 0, "id": "182", "nome": null, "Toponimo": "Tapada de Funduães", "DESIGNACAO": null, "localidade": null, "freguesia": "Borba da Montanha e Carvalho", "concelho": "Celorico de Basto", "distrito": "Braga" }, "geometry": { "type": "Point", "coordinates": [ -8.07968, 41.38688 ] } },
{ "type": "Feature", "properties": { "gid": 0, "id": "183", "nome": null, "Toponimo": "Tapada de Funduães", "DESIGNACAO": null, "localidade": null, "freguesia": "Borba da Montanha", "concelho": "Celorico de Basto", "distrito": "Braga" }, "geometry": { "type": "Point", "coordinates": [ -8.07995, 41.38665 ] } },
{ "type": "Feature", "properties": { "gid": 0, "id": "184", "nome": null, "Toponimo": "Campo da Antas", "DESIGNACAO": null, "localidade": null, "freguesia": "Arnoia", "concelho": "Celorico de Basto", "distrito": "Braga" }, "geometry": { "type": "Point", "coordinates": [ -8.04972, 41.36143 ] } },
{ "type": "Feature", "properties": { "gid": 0, "id": "185", "nome": null, "Toponimo": "Veiga", "DESIGNACAO": null, "localidade": null, "freguesia": "União das freguesias de Carvalho e Basto (Santa Tecla)", "concelho": "Celorico de Basto", "distrito": "Braga" }, "geometry": { "type": "Point", "coordinates": [ -8.07907, 41.38467 ] } },
{ "type": "Feature", "properties": { "gid": 0, "id": "186", "nome": null, "Toponimo": "Castro de Barrega 2", "DESIGNACAO": null, "localidade": null, "freguesia": "Borba da Montanha", "concelho": "Celorico de Basto", "distrito": "Braga" }, "geometry": { "type": "Point", "coordinates": [ -8.07214, 41.39256 ] } },
{ "type": "Feature", "properties": { "gid": 0, "id": "187", "nome": null, "Toponimo": "Vales", "DESIGNACAO": null, "localidade": null, "freguesia": "Agilde", "concelho": "Celorico de Basto", "distrito": null }, "geometry": { "type": "Point", "coordinates": [ -8.1242, 41.36985 ] } },
{ "type": "Feature", "properties": { "gid": 0, "id": "0", "nome": null, "Toponimo": null, "DESIGNACAO": "Moinhos do Seco / da Bouça", "localidade": null, "freguesia": "União das freguesias de Britelo, Gémeos e Ourilhe", "concelho": null, "distrito": null }, "geometry": { "type": "Point", "coordinates": [ -7.97396, 41.38521 ] } },
{ "type": "Feature", "properties": { "gid": 0, "id": "0", "nome": null, "Toponimo": null, "DESIGNACAO": "Moinhos do Seco / da Bouça", "localidade": null, "freguesia": "União das freguesias de Britelo, Gémeos e Ourilhe", "concelho": null, "distrito": null }, "geometry": { "type": "Point", "coordinates": [ -7.97304, 41.38568 ] } },
{ "type": "Feature", "properties": { "gid": 0, "id": "0", "nome": null, "Toponimo": null, "DESIGNACAO": "Moinhos do Seco / da Bouça", "localidade": null, "freguesia": "União das freguesias de Britelo, Gémeos e Ourilhe", "concelho": null, "distrito": null }, "geometry": { "type": "Point", "coordinates": [ -7.97594, 41.38488 ] } },
{ "type": "Feature", "properties": { "gid": 0, "id": "0", "nome": null, "Toponimo": null, "DESIGNACAO": "Moinhos do Seco / da Bouça", "localidade": null, "freguesia": "União das freguesias de Britelo, Gémeos e Ourilhe", "concelho": null, "distrito": null }, "geometry": { "type": "Point", "coordinates": [ -7.97543, 41.38504 ] } },
{ "type": "Feature", "properties": { "gid": 0, "id": "0", "nome": null, "Toponimo": null, "DESIGNACAO": "Alminhas de Boeiros", "localidade": null, "freguesia": "União das freguesias de Britelo, Gémeos e Ourilhe", "concelho": null, "distrito": null }, "geometry": { "type": "Point", "coordinates": [ -7.98537, 41.38669 ] } },
{ "type": "Feature", "properties": { "gid": 0, "id": "0", "nome": null, "Toponimo": null, "DESIGNACAO": "Moinho do Fundo", "localidade": null, "freguesia": "União das freguesias de Britelo, Gémeos e Ourilhe", "concelho": null, "distrito": null }, "geometry": { "type": "Point", "coordinates": [ -8.03525, 41.39054 ] } },
{ "type": "Feature", "properties": { "gid": 0, "id": "0", "nome": null, "Toponimo": null, "DESIGNACAO": "Alminhas de Pousada", "localidade": null, "freguesia": "União das freguesias de Carvalho e Basto (Santa Tecla)", "concelho": null, "distrito": null }, "geometry": { "type": "Point", "coordinates": [ -8.06613, 41.37925 ] } },
{ "type": "Feature", "properties": { "gid": 0, "id": "0", "nome": null, "Toponimo": null, "DESIGNACAO": "Alminhas de Outeiro Coelhos", "localidade": null, "freguesia": "Arnoia", "concelho": null, "distrito": null }, "geometry": { "type": "Point", "coordinates": [ -8.0076, 41.37333 ] } },
{ "type": "Feature", "properties": { "gid": 0, "id": "0", "nome": null, "Toponimo": null, "DESIGNACAO": "Casa da Taipa", "localidade": null, "freguesia": "Vale de Bouro", "concelho": null, "distrito": null }, "geometry": { "type": "Point", "coordinates": [ -8.00535, 41.4463 ] } },
{ "type": "Feature", "properties": { "gid": 0, "id": "0", "nome": null, "Toponimo": null, "DESIGNACAO": "Casa do Pinheiro", "localidade": null, "freguesia": "Vale de Bouro", "concelho": null, "distrito": null }, "geometry": { "type": "Point", "coordinates": [ -7.99501, 41.44982 ] } },
{ "type": "Feature", "properties": { "gid": 0, "id": "0", "nome": null, "Toponimo": null, "DESIGNACAO": "Casa do Requeixo", "localidade": null, "freguesia": "Vale de Bouro", "concelho": null, "distrito": null }, "geometry": { "type": "Point", "coordinates": [ -7.99639, 41.44604 ] } },
{ "type": "Feature", "properties": { "gid": 0, "id": "0", "nome": null, "Toponimo": null, "DESIGNACAO": "Ponte de Perre", "localidade": null, "freguesia": "Vale de Bouro", "concelho": null, "distrito": null }, "geometry": { "type": "Point", "coordinates": [ -7.9979, 41.44128 ] } },
{ "type": "Feature", "properties": { "gid": 0, "id": "0", "nome": null, "Toponimo": null, "DESIGNACAO": "Casa de Raposeira", "localidade": null, "freguesia": "Vale de Bouro", "concelho": null, "distrito": null }, "geometry": { "type": "Point", "coordinates": [ -8.01777, 41.44109 ] } },
{ "type": "Feature", "properties": { "gid": 0, "id": "0", "nome": null, "Toponimo": null, "DESIGNACAO": "Casa Grande de Passô", "localidade": null, "freguesia": "Ribas", "concelho": null, "distrito": null }, "geometry": { "type": "Point", "coordinates": [ -8.0078, 41.45776 ] } },
{ "type": "Feature", "properties": { "gid": 0, "id": "0", "nome": null, "Toponimo": null, "DESIGNACAO": "Moinho do Salgueiro", "localidade": null, "freguesia": "União das freguesias de Veade, Gagos e Molares", "concelho": null, "distrito": null }, "geometry": { "type": "Point", "coordinates": [ -7.98605, 41.41791 ] } },
{ "type": "Feature", "properties": { "gid": 0, "id": "0", "nome": null, "Toponimo": null, "DESIGNACAO": "Casa do Brasileiro", "localidade": null, "freguesia": "União das freguesias de Veade, Gagos e Molares", "concelho": null, "distrito": null }, "geometry": { "type": "Point", "coordinates": [ -7.98772, 41.41551 ] } },
{ "type": "Feature", "properties": { "gid": 0, "id": "0", "nome": null, "Toponimo": null, "DESIGNACAO": "Ponte de Boques", "localidade": null, "freguesia": "União das freguesias de Britelo, Gémeos e Ourilhe", "concelho": null, "distrito": null }, "geometry": { "type": "Point", "coordinates": [ -8.01231, 41.40136 ] } },
{ "type": "Feature", "properties": { "gid": 0, "id": "0", "nome": null, "Toponimo": null, "DESIGNACAO": "Casa de Queirões", "localidade": null, "freguesia": "União das freguesias de Canedo de Basto e Corgo", "concelho": null, "distrito": null }, "geometry": { "type": "Point", "coordinates": [ -7.97386, 41.4487 ] } },
{ "type": "Feature", "properties": { "gid": 0, "id": "115", "nome": null, "Toponimo": null, "DESIGNACAO": "Capela de N.ª Sr.ª do Amparo", "localidade": null, "freguesia": "Basto (S. Clemente)", "concelho": null, "distrito": null }, "geometry": { "type": "Point", "coordinates": [ -8.06112, 41.47841 ] } },
{ "type": "Feature", "properties": { "gid": 0, "id": "0", "nome": null, "Toponimo": null, "DESIGNACAO": "Casa da Familia Ribeiro", "localidade": null, "freguesia": "Basto (S. Clemente)", "concelho": null, "distrito": null }, "geometry": { "type": "Point", "coordinates": [ -8.06228, 41.47835 ] } },
{ "type": "Feature", "properties": { "gid": 0, "id": "0", "nome": null, "Toponimo": null, "DESIGNACAO": "Ponte de Piago Negro", "localidade": null, "freguesia": "Basto (S. Clemente)", "concelho": null, "distrito": null }, "geometry": { "type": "Point", "coordinates": [ -8.05011, 41.48156 ] } },
{ "type": "Feature", "properties": { "gid": 0, "id": "0", "nome": null, "Toponimo": null, "DESIGNACAO": "Ponte de Freiria", "localidade": null, "freguesia": "Basto (S. Clemente)", "concelho": null, "distrito": null }, "geometry": { "type": "Point", "coordinates": [ -8.03683, 41.47703 ] } },
{ "type": "Feature", "properties": { "gid": 0, "id": "28", "nome": null, "Toponimo": null, "DESIGNACAO": "Casa da Gandarela", "localidade": null, "freguesia": "Basto (S. Clemente)", "concelho": null, "distrito": null }, "geometry": { "type": "Point", "coordinates": [ -8.03148, 41.45808 ] } },
{ "type": "Feature", "properties": { "gid": 0, "id": "0", "nome": null, "Toponimo": null, "DESIGNACAO": "Moinho de Penagude", "localidade": null, "freguesia": "União das freguesias de Carvalho e Basto (Santa Tecla)", "concelho": null, "distrito": null }, "geometry": { "type": "Point", "coordinates": [ -8.05215, 41.37959 ] } },
{ "type": "Feature", "properties": { "gid": 0, "id": "0", "nome": null, "Toponimo": null, "DESIGNACAO": "Moinhos e Levadas de St.ª Tecla", "localidade": null, "freguesia": "União das freguesias de Carvalho e Basto (Santa Tecla)", "concelho": null, "distrito": null }, "geometry": { "type": "Point", "coordinates": [ -8.05172, 41.37993 ] } },
{ "type": "Feature", "properties": { "gid": 0, "id": "0", "nome": null, "Toponimo": null, "DESIGNACAO": "Casa em Aveia", "localidade": null, "freguesia": "União das freguesias de Carvalho e Basto (Santa Tecla)", "concelho": null, "distrito": null }, "geometry": { "type": "Point", "coordinates": [ -8.05595, 41.38279 ] } },